name,category,address,lat,lng,phone,legacy_id,is_verified,images,location
매일상조,sangjo,전국 서비스,37.5665,126.978,053-256-5891,2310,True,{https://placehold.co/600x400/ededed/1a1a1a/png?text=Maeil},POINT(126.978 37.5665)
영명사 우리추모공원,charnel_house,경상북도 울진군 기성면 기성로 912-24,36.8181875339096,129.441006784123,054-788-9790,1680,True,{https://xvmpvzldezpoxxsarizm.supabase.co/storage/v1/object/public/facility-images/defaults/charnel_final_1767789315138.jpg},POINT(129.441006784123 36.8181875339096)
S병원장례식장,funeral_home,대구광역시 달서구 와룡로 57,35.837889482623,128.536434807458,053-567-0909,1679,True,{https://xvmpvzldezpoxxsarizm.supabase.co/storage/v1/object/public/facility-images/defaults/charnel_final_1767789315138.jpg},POINT(128.536434807458 35.837889482623)
성남중앙병원 장례식장,funeral_home,경기도 성남시 중원구 산성대로476번길 12,37.4529446188906,127.162001115169,031-741-8384,1678,True,{https://xvmpvzldezpoxxsarizm.supabase.co/storage/v1/object/public/facility-images/defaults/charnel_final_1767789315138.jpg},POINT(127.162001115169 37.4529446188906)
통일로추모공원,charnel_house,경기도 파주시 조리읍 명봉산로114번길 84 통일로추모공원,37.7396135688483,126.848503332524,031-943-3501,1673,True,{https://xvmpvzldezpoxxsarizm.supabase.co/storage/v1/object/public/facility-images/defaults/charnel_final_1767789315138.jpg},POINT(126.848503332524 37.7396135688483)
청주시장례식장운영회,funeral_home,충북 청주시 상당구 목련로 731,36.6428098895286,127.545319061971,,1670,True,{https://xvmpvzldezpoxxsarizm.supabase.co/storage/v1/object/public/facility-images/defaults/charnel_final_1767789315138.jpg},POINT(127.545319061971 36.6428098895286)
추병원장례식장,funeral_home,경기도 의정부시 평화로 650 추병원,37.7497798643037,127.045189463213,031-844-4442,1668,True,{https://xvmpvzldezpoxxsarizm.supabase.co/storage/v1/object/public/facility-images/defaults/charnel_final_1767789315138.jpg},POINT(127.045189463213 37.7497798643037)
고흥종합병원장례식장,funeral_home,전라남도 고흥군 고흥읍 고흥로 1935 숙소,34.6216901762265,127.294249689201,061-830-3300,1727,True,{https://xvmpvzldezpoxxsarizm.supabase.co/storage/v1/object/public/facility-images/defaults/charnel_final_1767789315138.jpg},POINT(127.294249689201 34.6216901762265)
익산병원장례식장,funeral_home,전북특별자치도 익산시 무왕로 969,35.961701412559,126.966521099936,063-851-9444,1666,True,{https://xvmpvzldezpoxxsarizm.supabase.co/storage/v1/object/public/facility-images/defaults/charnel_final_1767789315138.jpg},POINT(126.966521099936 35.961701412559)
영락원장례식장,funeral_home,경남 창원시 마산회원구 봉양로 152,35.2176044616235,128.602945195282,055-292-4444,1660,True,{https://xvmpvzldezpoxxsarizm.supabase.co/storage/v1/object/public/facility-images/defaults/charnel_final_1767789315138.jpg},POINT(128.602945195282 35.2176044616235)
영천전문장례식장,funeral_home,경상북도 영천시 한방로 35 영천전문장례식장,35.9443780642696,128.934357656517,054-332-4000,1659,True,{https://xvmpvzldezpoxxsarizm.supabase.co/storage/v1/object/public/facility-images/defaults/charnel_final_1767789315138.jpg},POINT(128.934357656517 35.9443780642696)
영남제일병원장례식장,funeral_home,경상북도 의성군 안계면 용기4길 36,36.3890765840782,128.434259371299,,1658,True,{https://xvmpvzldezpoxxsarizm.supabase.co/storage/v1/object/public/facility-images/defaults/charnel_final_1767789315138.jpg},POINT(128.434259371299 36.3890765840782)
영산포제일병원장례식장,funeral_home,전라남도 나주시 대기2길 12 영산포제일병원,34.9924727253245,126.711731847394,061-334-1444,1657,True,{https://xvmpvzldezpoxxsarizm.supabase.co/storage/v1/object/public/facility-images/defaults/charnel_final_1767789315138.jpg},POINT(126.711731847394 34.9924727253245)
속초시추모의집공설봉안묘,charnel_house,강원특별자치도 속초시 이목로 196,38.203164860577,128.547851137318,033-635-7023,1656,True,{https://xvmpvzldezpoxxsarizm.supabase.co/storage/v1/object/public/facility-images/defaults/charnel_final_1767789315138.jpg},POINT(128.547851137318 38.203164860577)
센트럴병원장례식장,funeral_home,경기도 시흥시 공단1대로 237 센트럴 병원,37.336844196739,126.727982612813,031-434-4466,1655,True,{https://xvmpvzldezpoxxsarizm.supabase.co/storage/v1/object/public/facility-images/defaults/charnel_final_1767789315138.jpg},POINT(126.727982612813 37.336844196739)
강선사,charnel_house,강원특별자치도 춘천시 남산면 강촌길 31-29 강선사,37.8127653233526,127.630756199322,033-261-4494,1681,True,{https://xvmpvzldezpoxxsarizm.supabase.co/storage/v1/object/public/facility-images/defaults/charnel_final_1767789315138.jpg},POINT(127.630756199322 37.8127653233526)
백제종합병원장례식장,funeral_home,충청남도 논산시 시민로294번길 14,36.1927873953856,127.094364879395,041-733-2191,1654,True,{https://xvmpvzldezpoxxsarizm.supabase.co/storage/v1/object/public/facility-images/defaults/charnel_final_1767789315138.jpg},POINT(127.094364879395 36.1927873953856)
계룡장례식장입구,funeral_home,충청남도 공주시 소학동,36.4442744021615,127.150108271246,041-857-5040,1650,True,{https://xvmpvzldezpoxxsarizm.supabase.co/storage/v1/object/public/facility-images/defaults/charnel_final_1767789315138.jpg},POINT(127.150108271246 36.4442744021615)
광혜병원장례식장,funeral_home,부산광역시 동래구 미남로146번길 11,35.2067758899459,129.071191437024,051-506-1022,1648,True,{https://xvmpvzldezpoxxsarizm.supabase.co/storage/v1/object/public/facility-images/defaults/charnel_final_1767789315138.jpg},POINT(129.071191437024 35.2067758899459)
동부장례식장,funeral_home,충청북도 괴산군 괴산읍 괴강로 144,36.8077841377087,127.808778750984,043-832-0999,1647,True,{https://xvmpvzldezpoxxsarizm.supabase.co/storage/v1/object/public/facility-images/defaults/charnel_final_1767789315138.jpg},POINT(127.808778750984 36.8077841377087)
분당제생병원 장례식장,funeral_home,경기 성남시 분당구 서현로180번길 20,37.3882035182255,127.121778342112,031-708-4444,1646,True,{https://xvmpvzldezpoxxsarizm.supabase.co/storage/v1/object/public/facility-images/defaults/charnel_final_1767789315138.jpg},POINT(127.121778342112 37.3882035182255)
우란장례식장,funeral_home,강원특별자치도 강릉시 옥가로 30,37.7590136704592,128.899900295729,033-649-0169,1644,True,{https://xvmpvzldezpoxxsarizm.supabase.co/storage/v1/object/public/facility-images/defaults/charnel_final_1767789315138.jpg},POINT(128.899900295729 37.7590136704592)
고인돌장례식장,funeral_home,전북특별자치도 고창군 고창읍 녹두로 1295 고인돌장례식장,35.4338841506207,126.688061052176,063-562-3223,1643,True,{https://xvmpvzldezpoxxsarizm.supabase.co/storage/v1/object/public/facility-images/defaults/charnel_final_1767789315138.jpg},POINT(126.688061052176 35.4338841506207)
성서효요양병원 장례식장,funeral_home,대구 달서구 달구벌대로 1152,35.8510537956943,128.493220744432,053-582-0444,1642,True,{https://xvmpvzldezpoxxsarizm.supabase.co/storage/v1/object/public/facility-images/defaults/charnel_final_1767789315138.jpg},POINT(128.493220744432 35.8510537956943)
성제요양병원 장례식장,funeral_home,경북 의성군 안계면 안계길 200,36.3885980400966,128.433078811689,054-861-4441,1641,True,{https://xvmpvzldezpoxxsarizm.supabase.co/storage/v1/object/public/facility-images/defaults/charnel_final_1767789315138.jpg},POINT(128.433078811689 36.3885980400966)
의료법인구의료재단구병원장례식장,funeral_home,대구광역시 달서구 감삼북길 141,35.8506823212659,128.541383437137,053-524-4444,1636,True,{https://xvmpvzldezpoxxsarizm.supabase.co/storage/v1/object/public/facility-images/defaults/charnel_final_1767789315138.jpg},POINT(128.541383437137 35.8506823212659)
영주현대장례식장,funeral_home,경상북도 영주시 가흥공단로 11 영주현대장례식장,36.8308777762094,128.595323650836,054-634-4400,1711,True,{https://xvmpvzldezpoxxsarizm.supabase.co/storage/v1/object/public/facility-images/defaults/charnel_final_1767789315138.jpg},POINT(128.595323650836 36.8308777762094)
좋은강안병원 장례식장,funeral_home,부산광역시 수영구 수영로 493,35.1501725109377,129.11060070761,051-610-9009,1631,True,{https://xvmpvzldezpoxxsarizm.supabase.co/storage/v1/object/public/facility-images/defaults/charnel_final_1767789315138.jpg},POINT(129.11060070761 35.1501725109377)
효사랑병원장례식장,funeral_home,경기도 연천군 전곡읍 전곡리 275,38.0176866224687,127.068340127146,031-832-4444,1630,True,{https://xvmpvzldezpoxxsarizm.supabase.co/storage/v1/object/public/facility-images/defaults/charnel_final_1767789315138.jpg},POINT(127.068340127146 38.0176866224687)
원진녹색병원장례식장,funeral_home,경기도 구리시 동구릉로 65 성림스포츠센터(원진녹색병원),37.6059427818152,127.133857630216,031-552-5119,1629,True,{https://xvmpvzldezpoxxsarizm.supabase.co/storage/v1/object/public/facility-images/defaults/charnel_final_1767789315138.jpg},POINT(127.133857630216 37.6059427818152)
원주민중요양병원장례식장,funeral_home,강원특별자치도 원주시 북원로 2636,37.378607865214,127.946412871556,033-732-0270,1628,True,{https://xvmpvzldezpoxxsarizm.supabase.co/storage/v1/object/public/facility-images/defaults/charnel_final_1767789315138.jpg},POINT(127.946412871556 37.378607865214)
백병원 대명아임레디 장례식장,funeral_home,경상남도 거제시 계룡로5길 14,34.8734175518558,128.627541688616,055-636-3112,1653,True,{https://xvmpvzldezpoxxsarizm.supabase.co/storage/v1/object/public/facility-images/defaults/charnel_final_1767789315138.jpg},POINT(128.627541688616 34.8734175518558)
선병원장례식장,funeral_home,대전광역시 유성구 북유성대로 93,36.3751011899075,127.324948755618,042-825-9494,1627,True,{https://xvmpvzldezpoxxsarizm.supabase.co/storage/v1/object/public/facility-images/defaults/charnel_final_1767789315138.jpg},POINT(127.324948755618 36.3751011899075)
서호추모공원,charnel_house,경기도 평택시 청북읍 고렴길 161-12 서호추모공원,37.0620086318109,126.932733818719,1577-4595,1684,True,{https://xvmpvzldezpoxxsarizm.supabase.co/storage/v1/object/public/facility-images/defaults/charnel_final_1767789315138.jpg},POINT(126.932733818719 37.0620086318109)
마송장례식장,funeral_home,경기도 김포시 통진읍 김포대로 2110-44 마송장례식장,37.6857193581959,126.608107480375,031-997-4441,1686,True,{https://xvmpvzldezpoxxsarizm.supabase.co/storage/v1/object/public/facility-images/defaults/charnel_final_1767789315138.jpg},POINT(126.608107480375 37.6857193581959)
하나성심병원 장례식장,funeral_home,경기 김포시 통진읍 김포대로 2110-44,37.6857193581959,126.608107480375,031-996-4440,1729,True,{https://xvmpvzldezpoxxsarizm.supabase.co/storage/v1/object/public/facility-images/defaults/charnel_final_1767789315138.jpg},POINT(126.608107480375 37.6857193581959)
경상북도 안동의료원 장례식장,funeral_home,경상북도 안동시 태사2길 55 안동의료원,36.5682167973372,128.732066958948,054-850-6440,1728,True,{https://xvmpvzldezpoxxsarizm.supabase.co/storage/v1/object/public/facility-images/defaults/charnel_final_1767789315138.jpg},POINT(128.732066958948 36.5682167973372)
가천대 길병원 장례식장,funeral_home,인천광역시 남동구 인주대로653번길 56 가천대 길병원 가천관. 장례식장,37.4518605325406,126.710026344833,032-460-3444,1725,True,{https://xvmpvzldezpoxxsarizm.supabase.co/storage/v1/object/public/facility-images/defaults/charnel_final_1767789315138.jpg},POINT(126.710026344833 37.4518605325406)
세종병원장례식장,funeral_home,경기도 부천시 소사구 호현로489번길 28,37.4805232205074,126.791166624657,032-346-1164,1722,True,{https://xvmpvzldezpoxxsarizm.supabase.co/storage/v1/object/public/facility-images/defaults/charnel_final_1767789315138.jpg},POINT(126.791166624657 37.4805232205074)
세화병원장례식장,funeral_home,경기도 안산시 상록구 용신로 355 세화병원,37.3020458084826,126.861554977766,031-501-4444,1721,True,{https://xvmpvzldezpoxxsarizm.supabase.co/storage/v1/object/public/facility-images/defaults/charnel_final_1767789315138.jpg},POINT(126.861554977766 37.3020458084826)
강릉의료원 장례식장1관,funeral_home,강원특별자치도 강릉시 경강로 2007,37.74990581032,128.88903608073,033-610-1444,1720,True,{https://xvmpvzldezpoxxsarizm.supabase.co/storage/v1/object/public/facility-images/defaults/charnel_final_1767789315138.jpg},POINT(128.88903608073 37.74990581032)
보훈공단 대전보훈병원 장례식장,funeral_home,대전광역시 대덕구 신탄진동 대청로82번길 147 대전보훈병원,36.447316412604,127.439693956141,042-939-0575,1719,True,{https://xvmpvzldezpoxxsarizm.supabase.co/storage/v1/object/public/facility-images/defaults/charnel_final_1767789315138.jpg},POINT(127.439693956141 36.447316412604)
진도한국병원 장례식장,funeral_home,전남 진도군 진도읍 남문길 48,34.482549608829,126.264074686843,061-544-4408,1718,True,{https://xvmpvzldezpoxxsarizm.supabase.co/storage/v1/object/public/facility-images/defaults/charnel_final_1767789315138.jpg},POINT(126.264074686843 34.482549608829)
BHS동래한서요양병원장례식장,funeral_home,부산광역시 금정구 중앙대로 1721,35.2384778285815,129.091272312475,051-582-1041,1717,True,{https://xvmpvzldezpoxxsarizm.supabase.co/storage/v1/object/public/facility-images/defaults/charnel_final_1767789315138.jpg},POINT(129.091272312475 35.2384778285815)
제일효요양병원장례식장,funeral_home,대구광역시 서구 북비산로 250 제일효병원,35.878938063665,128.560269043503,053-525-1024,1775,True,{https://xvmpvzldezpoxxsarizm.supabase.co/storage/v1/object/public/facility-images/defaults/charnel_final_1767789315138.jpg},POINT(128.560269043503 35.878938063665)
화성중앙병원장례식장,funeral_home,경기도 화성시 향남읍 발안로 5,37.1313511998112,126.910779669531,031-352-4483,1715,True,{https://xvmpvzldezpoxxsarizm.supabase.co/storage/v1/object/public/facility-images/defaults/charnel_final_1767789315138.jpg},POINT(126.910779669531 37.1313511998112)
대구가톨릭대학교병원 장례식장,funeral_home,대구광역시 남구 두류공원로17길 33 요셉관,35.8441891121102,128.565825660965,053-650-4444,1713,True,{https://xvmpvzldezpoxxsarizm.supabase.co/storage/v1/object/public/facility-images/defaults/charnel_final_1767789315138.jpg},POINT(128.565825660965 35.8441891121102)
인제대학교해운대백병원 장례식장,funeral_home,부산광역시 해운대구 해운대로 875,35.1732594832579,129.182163894191,051-893-4444,1708,True,{https://xvmpvzldezpoxxsarizm.supabase.co/storage/v1/object/public/facility-images/defaults/charnel_final_1767789315138.jpg},POINT(129.182163894191 35.1732594832579)
학교법인 가톨릭학원 여의도성모장례식장,funeral_home,서울특별시 영등포구 여의도동 63 로 10,37.5182708055078,126.936729826762,02-3779-1526,1707,True,{https://xvmpvzldezpoxxsarizm.supabase.co/storage/v1/object/public/facility-images/defaults/charnel_final_1767789315138.jpg},POINT(126.936729826762 37.5182708055078)
곽병원장례식장,funeral_home,대구광역시 중구 국채보상로 531 곽병원,35.8708319225878,128.588677095755,053-252-1023,1685,True,{https://xvmpvzldezpoxxsarizm.supabase.co/storage/v1/object/public/facility-images/defaults/charnel_final_1767789315138.jpg},POINT(128.588677095755 35.8708319225878)
수원시연화장장례식장,funeral_home,경기도 수원시 영통구 광교호수로 278 수원시 연화장,37.2899153565853,127.084066336093,031-218-6560,1706,True,{https://xvmpvzldezpoxxsarizm.supabase.co/storage/v1/object/public/facility-images/defaults/charnel_final_1767789315138.jpg},POINT(127.084066336093 37.2899153565853)
온병원 장례식장,funeral_home,부산광역시 부산진구 가야대로 721 온병원,35.1578850259432,129.050099387837,051-607-0111,1704,True,{https://xvmpvzldezpoxxsarizm.supabase.co/storage/v1/object/public/facility-images/defaults/charnel_final_1767789315138.jpg},POINT(129.050099387837 35.1578850259432)
금강추모공원,charnel_house,충북 옥천군 동이면 적하길 323-67,36.2816699741344,127.639688539033,043-733-9991,1703,True,{https://xvmpvzldezpoxxsarizm.supabase.co/storage/v1/object/public/facility-images/defaults/charnel_final_1767789315138.jpg},POINT(127.639688539033 36.2816699741344)
평화원장례식장,funeral_home,대전광역시 중구 대전천서로 745 중촌동 183-5,36.3473530653174,127.408482021904,042-531-4444,1699,True,{https://xvmpvzldezpoxxsarizm.supabase.co/storage/v1/object/public/facility-images/defaults/charnel_final_1767789315138.jpg},POINT(127.408482021904 36.3473530653174)
장림중앙장례식장,funeral_home,부산 사하구 장림번영로 59,35.0809404568036,128.971987441074,051-264-0444,1697,True,{https://xvmpvzldezpoxxsarizm.supabase.co/storage/v1/object/public/facility-images/defaults/charnel_final_1767789315138.jpg},POINT(128.971987441074 35.0809404568036)
당진요양병원 신평장례식장,funeral_home,충남 당진시 신평면 말목길 22-13,36.8865763798158,126.762583444207,070-4982-3135,1696,True,{https://xvmpvzldezpoxxsarizm.supabase.co/storage/v1/object/public/facility-images/defaults/charnel_final_1767789315138.jpg},POINT(126.762583444207 36.8865763798158)
법화세계추모관,charnel_house,경북 경주시 내남면 내외로 1130-16,35.7405494077257,129.23619840647,054-773-6605,1695,True,{https://xvmpvzldezpoxxsarizm.supabase.co/storage/v1/object/public/facility-images/defaults/charnel_final_1767789315138.jpg},POINT(129.23619840647 35.7405494077257)
서울추모공원,charnel_house,서울특별시 서초구 양재대로12길 74,37.4520334456715,127.042811203597,02-3498-2581,1751,True,{https://xvmpvzldezpoxxsarizm.supabase.co/storage/v1/object/public/facility-images/defaults/charnel_final_1767789315138.jpg},POINT(127.042811203597 37.4520334456715)
송정장례식장,funeral_home,광주광역시 광산구 상무대로 364,35.1436787958882,126.805540802468,062-941-4400,1693,True,{https://xvmpvzldezpoxxsarizm.supabase.co/storage/v1/object/public/facility-images/defaults/charnel_final_1767789315138.jpg},POINT(126.805540802468 35.1436787958882)
M병원장례식장(휴업),funeral_home,대구광역시 북구 팔달로 147,35.8894327643501,128.566197658246,,1692,True,{https://xvmpvzldezpoxxsarizm.supabase.co/storage/v1/object/public/facility-images/defaults/charnel_final_1767789315138.jpg},POINT(128.566197658246 35.8894327643501)
홍성추모공원,charnel_house,충청남도 홍성군 금마면 금마로516번길 85,36.6098623357738,126.764154015042,041-633-7780,1691,True,{https://xvmpvzldezpoxxsarizm.supabase.co/storage/v1/object/public/facility-images/defaults/charnel_final_1767789315138.jpg},POINT(126.764154015042 36.6098623357738)
경기도의료원수원병원장례식장,funeral_home,경기도 수원시 장안구 수성로245번길 69 경기도립수원의료원,37.2918594997553,126.996380749927,031-888-0744,1690,True,{https://xvmpvzldezpoxxsarizm.supabase.co/storage/v1/object/public/facility-images/defaults/charnel_final_1767789315138.jpg},POINT(126.996380749927 37.2918594997553)
웰니스1004요양병원장례식장,funeral_home,대구광역시 서구 달구벌대로 1889,35.8621511136079,128.570869034591,053-570-1004,1689,True,{https://xvmpvzldezpoxxsarizm.supabase.co/storage/v1/object/public/facility-images/defaults/charnel_final_1767789315138.jpg},POINT(128.570869034591 35.8621511136079)
천국의계단추모관,charnel_house,전라남도 무안군 일로읍 죽사동길 179-126,34.8649499233871,126.487066306585,061-282-8661,1688,True,{https://xvmpvzldezpoxxsarizm.supabase.co/storage/v1/object/public/facility-images/defaults/charnel_final_1767789315138.jpg},POINT(126.487066306585 34.8649499233871)
진도전남병원장례식장,funeral_home,전라남도 진도군 진도읍 남문길 12-11,34.4792734602951,126.26511188762,061-544-4441,1687,True,{https://xvmpvzldezpoxxsarizm.supabase.co/storage/v1/object/public/facility-images/defaults/charnel_final_1767789315138.jpg},POINT(126.26511188762 34.4792734602951)
지상낙원추모공원,charnel_house,경기도 고양시 덕양구 대자동 147-2,37.6809163252602,126.893857813033,031-962-4048,1705,True,{https://xvmpvzldezpoxxsarizm.supabase.co/storage/v1/object/public/facility-images/defaults/charnel_final_1767789315138.jpg},POINT(126.893857813033 37.6809163252602)
원병원장례식장,funeral_home,경기도 남양주시 화도읍 경춘로 1943-16,37.6519274316524,127.304380651485,031-511-9944,1626,True,{https://xvmpvzldezpoxxsarizm.supabase.co/storage/v1/object/public/facility-images/defaults/charnel_final_1767789315138.jpg},POINT(127.304380651485 37.6519274316524)
예은 추모공원,charnel_house,충북 음성군 금왕읍 덕금로 936-61,36.9662916640539,127.589399234884,043-881-4700,1625,True,{https://xvmpvzldezpoxxsarizm.supabase.co/storage/v1/object/public/facility-images/defaults/charnel_final_1767789315138.jpg},POINT(127.589399234884 36.9662916640539)
양산농협 양산장례식장,funeral_home,경상남도 양산시 동면 남양산길 73,35.325334916133,129.02752711944,055-366-4440,1624,True,{https://xvmpvzldezpoxxsarizm.supabase.co/storage/v1/object/public/facility-images/defaults/charnel_final_1767789315138.jpg},POINT(129.02752711944 35.325334916133)
동두천장례식장,funeral_home,경기도 동두천시 평화로 2972,37.9517649973527,127.062851431147,031-857-0441,1584,True,{https://xvmpvzldezpoxxsarizm.supabase.co/storage/v1/object/public/facility-images/defaults/charnel_final_1767789315138.jpg},POINT(127.062851431147 37.9517649973527)
탄현공설묘지,charnel_house,경기도 파주시 탄현면 금승리 산22,37.8083468975196,126.759307497441,031-940-8085,1315,True,{https://xvmpvzldezpoxxsarizm.supabase.co/storage/v1/object/public/facility-images/defaults/charnel_final_1767789315138.jpg},POINT(126.759307497441 37.8083468975196)
안양샘병원 장례식장,funeral_home,경기도 안양시 만안구 삼덕로 9,37.3928912406091,126.924820783439,031-467-9114,1038,True,{https://xvmpvzldezpoxxsarizm.supabase.co/storage/v1/object/public/facility-images/defaults/charnel_final_1767789315138.jpg},POINT(126.924820783439 37.3928912406091)
부산추모공원,charnel_house,부산광역시 기장군 정관읍 정관로 225 부산추모공원,35.3481916683872,129.160560574696,051-790-5100,1582,True,{https://xvmpvzldezpoxxsarizm.supabase.co/storage/v1/object/public/facility-images/defaults/charnel_final_1767789315138.jpg},POINT(129.160560574696 35.3481916683872)
청도대남병원장례식장,funeral_home,경상북도 청도군 화양읍 청화로 79-7 1층 청도대남병원장례식장,35.6486288235506,128.736806148952,054-372-3560,1581,True,{https://xvmpvzldezpoxxsarizm.supabase.co/storage/v1/object/public/facility-images/defaults/charnel_final_1767789315138.jpg},POINT(128.736806148952 35.6486288235506)
동강병원장례식장,funeral_home,울산광역시 중구 태화로 240 동강병원남관,35.5524446267697,129.301658340793,052-241-1440,1579,True,{https://xvmpvzldezpoxxsarizm.supabase.co/storage/v1/object/public/facility-images/defaults/charnel_final_1767789315138.jpg},POINT(129.301658340793 35.5524446267697)
녹야원,charnel_house,대전광역시 유성구 현충원로 389-20,36.3600943726804,127.313246116809,042-824-0801,1578,True,{https://xvmpvzldezpoxxsarizm.supabase.co/storage/v1/object/public/facility-images/defaults/charnel_final_1767789315138.jpg},POINT(127.313246116809 36.3600943726804)
김해성모요양병원장례식장,funeral_home,경상남도 김해시 김해대로 2479-1 김해성모병원,35.2280413941406,128.897834917267,055-320-2000,1577,True,{https://xvmpvzldezpoxxsarizm.supabase.co/storage/v1/object/public/facility-images/defaults/charnel_final_1767789315138.jpg},POINT(128.897834917267 35.2280413941406)
광주기독병원장례식장,funeral_home,광주광역시 남구 양림로 37 (양림동),35.1362325078132,126.911503084987,062-653-4400,1576,True,{https://xvmpvzldezpoxxsarizm.supabase.co/storage/v1/object/public/facility-images/defaults/charnel_final_1767789315138.jpg},POINT(126.911503084987 35.1362325078132)
쉴낙원 김포장례식장,funeral_home,경기도 김포시 승가로58번길 7,37.6071559838466,126.715414740409,031-449-1009,1574,True,{https://xvmpvzldezpoxxsarizm.supabase.co/storage/v1/object/public/facility-images/defaults/charnel_final_1767789315138.jpg},POINT(126.715414740409 37.6071559838466)
군위삼성병원 장례식장,funeral_home,대구 군위군 군위읍 중앙길 40,36.2325137509833,128.567327852939,,1572,True,{https://xvmpvzldezpoxxsarizm.supabase.co/storage/v1/object/public/facility-images/defaults/charnel_final_1767789315138.jpg},POINT(128.567327852939 36.2325137509833)
옥산전문장례식장,funeral_home,경상북도 경산시 서상길 84,35.8195174949835,128.734043047614,,1571,True,{https://xvmpvzldezpoxxsarizm.supabase.co/storage/v1/object/public/facility-images/defaults/charnel_final_1767789315138.jpg},POINT(128.734043047614 35.8195174949835)
거창사건추모공원,charnel_house,경상남도 거창군 신원면 신차로 2924 거창사건추모공원,35.5557456170525,127.924890338822,055-940-8510,1570,True,{https://xvmpvzldezpoxxsarizm.supabase.co/storage/v1/object/public/facility-images/defaults/charnel_final_1767789315138.jpg},POINT(127.924890338822 35.5557456170525)
우신장례식장,funeral_home,서울특별시 관악구 시흥대로 572 B1,37.4838892721327,126.90281628743,02-838-4444,1569,True,{https://xvmpvzldezpoxxsarizm.supabase.co/storage/v1/object/public/facility-images/defaults/charnel_final_1767789315138.jpg},POINT(126.90281628743 37.4838892721327)
김제새만금장례식장,funeral_home,전북특별자치도 김제시 하동1길 33,35.8160077094148,126.89237300193,063-547-4994,1585,True,{https://xvmpvzldezpoxxsarizm.supabase.co/storage/v1/object/public/facility-images/defaults/charnel_final_1767789315138.jpg},POINT(126.89237300193 35.8160077094148)
오산한국병원장례식장,funeral_home,경기도 오산시 밀머리로1번길 16,37.1413399848365,127.07550380227,031-375-7600,1567,True,{https://xvmpvzldezpoxxsarizm.supabase.co/storage/v1/object/public/facility-images/defaults/charnel_final_1767789315138.jpg},POINT(127.07550380227 37.1413399848365)
베스트장례식장,funeral_home,경기도 고양시 일산서구 경의로 816-1,37.6904150779502,126.760160823872,031-924-4444,1565,True,{https://xvmpvzldezpoxxsarizm.supabase.co/storage/v1/object/public/facility-images/defaults/charnel_final_1767789315138.jpg},POINT(126.760160823872 37.6904150779502)
조선대학교병원 장례식장,funeral_home,광주광역시 동구 필문대로 365 조선대학교병원,35.1385485970092,126.928186107501,062-220-3352,1561,True,{https://xvmpvzldezpoxxsarizm.supabase.co/storage/v1/object/public/facility-images/defaults/charnel_final_1767789315138.jpg},POINT(126.928186107501 35.1385485970092)
쉴낙원 일산장례식장,funeral_home,경기도 고양시 일산동구 백마로 62,37.6444400751521,126.762450356698,031-923-7000,1560,True,{https://xvmpvzldezpoxxsarizm.supabase.co/storage/v1/object/public/facility-images/defaults/charnel_final_1767789315138.jpg},POINT(126.762450356698 37.6444400751521)
해남우리종합병원장례식장,funeral_home,전라남도 해남군 옥천면 해남로 597,34.5843791552937,126.646895885183,061-530-7000,1559,True,{https://xvmpvzldezpoxxsarizm.supabase.co/storage/v1/object/public/facility-images/defaults/charnel_final_1767789315138.jpg},POINT(126.646895885183 34.5843791552937)
옥천성모병원장례식장,funeral_home,충청북도 옥천군 옥천읍 성왕로 1195,36.3133286123514,127.572009876887,043-733-0808,1558,True,{https://xvmpvzldezpoxxsarizm.supabase.co/storage/v1/object/public/facility-images/defaults/charnel_final_1767789315138.jpg},POINT(127.572009876887 36.3133286123514)
용인서울병원장례문화센터,funeral_home,경기도 용인시 처인구 고림로 81 용인서울병원,37.2403175460026,127.214490542199,031-321-0101,1557,True,{https://xvmpvzldezpoxxsarizm.supabase.co/storage/v1/object/public/facility-images/defaults/charnel_final_1767789315138.jpg},POINT(127.214490542199 37.2403175460026)
옥과장례식장,funeral_home,전라남도 곡성군 겸면 곡순로 2088,35.2687247894898,127.153714160304,061-362-4448,1556,True,{https://xvmpvzldezpoxxsarizm.supabase.co/storage/v1/object/public/facility-images/defaults/charnel_final_1767789315138.jpg},POINT(127.153714160304 35.2687247894898)
예수병원장례식장,funeral_home,전북특별자치도 전주시 완산구 서원로 365 예수병원,35.8143301116274,127.132602652336,063-285-1009,1555,True,{https://xvmpvzldezpoxxsarizm.supabase.co/storage/v1/object/public/facility-images/defaults/charnel_final_1767789315138.jpg},POINT(127.132602652336 35.8143301116274)
영암장례식장,funeral_home,전라남도 영암군 영암읍 낭주로 49-1 영암장례식장,34.7952142523202,126.708997828655,061-471-4884,1554,True,{https://xvmpvzldezpoxxsarizm.supabase.co/storage/v1/object/public/facility-images/defaults/charnel_final_1767789315138.jpg},POINT(126.708997828655 34.7952142523202)
연수장례식장,funeral_home,인천광역시 연수구 벚꽃로 122,37.4167914021224,126.678831727572,032-819-1024,1553,True,{https://xvmpvzldezpoxxsarizm.supabase.co/storage/v1/object/public/facility-images/defaults/charnel_final_1767789315138.jpg},POINT(126.678831727572 37.4167914021224)
송산장례식장,funeral_home,경기도 이천시 장호원읍 서동대로 8579 송산장례식장,37.1140345923718,127.58870387224,031-641-4440,1549,True,{https://xvmpvzldezpoxxsarizm.supabase.co/storage/v1/object/public/facility-images/defaults/charnel_final_1767789315138.jpg},POINT(127.58870387224 37.1140345923718)
함열백제장례예식장입구,charnel_house,전북특별자치도 익산시 함열읍 석매리,36.0549198121404,126.961856195476,063-861-5300,1543,True,{https://xvmpvzldezpoxxsarizm.supabase.co/storage/v1/object/public/facility-images/defaults/charnel_final_1767789315138.jpg},POINT(126.961856195476 36.0549198121404)
백제종합병원,funeral_home,충청남도 논산시 시민로294번길 14,36.1927873953856,127.094364879395,041-733-2191,1541,True,{https://xvmpvzldezpoxxsarizm.supabase.co/storage/v1/object/public/facility-images/defaults/charnel_final_1767789315138.jpg},POINT(127.094364879395 36.1927873953856)
무안장례식장,funeral_home,전라남도 무안군 무안읍 무안로 567-1 무안장례식장,34.9936615750601,126.481985875264,061-453-0068,1540,True,{https://xvmpvzldezpoxxsarizm.supabase.co/storage/v1/object/public/facility-images/defaults/charnel_final_1767789315138.jpg},POINT(126.481985875264 34.9936615750601)
교원예움 평택장례식장,funeral_home,경기도 평택시 신평로 205,36.9818562627221,127.093206407145,031-652-0404,1566,True,{https://xvmpvzldezpoxxsarizm.supabase.co/storage/v1/object/public/facility-images/defaults/charnel_final_1767789315138.jpg},POINT(127.093206407145 36.9818562627221)
새하늘 장례식장,funeral_home,경남 합천군 적중면 황강옥전로 1913,35.5538096609003,128.286702057969,,1586,True,{https://xvmpvzldezpoxxsarizm.supabase.co/storage/v1/object/public/facility-images/defaults/charnel_final_1767789315138.jpg},POINT(128.286702057969 35.5538096609003)
성애의료재단 성애병원장례식장,funeral_home,서울특별시 영등포구 여의대방로53길 22 성애병원,37.5120505408562,126.922369145801,02-844-4444,1587,True,{https://xvmpvzldezpoxxsarizm.supabase.co/storage/v1/object/public/facility-images/defaults/charnel_final_1767789315138.jpg},POINT(126.922369145801 37.5120505408562)
시화병원 장례식장,funeral_home,경기도 시흥시 군자천로 381-1 시화병원,37.3498755195619,126.736840890651,031-431-3311,1588,True,{https://xvmpvzldezpoxxsarizm.supabase.co/storage/v1/object/public/facility-images/defaults/charnel_final_1767789315138.jpg},POINT(126.736840890651 37.3498755195619)
연세대학교 용인장례식장,funeral_home,경기도 용인시 기흥구 동백죽전대로 363 연세대학교 용인장례식장,37.2707753831425,127.148187270811,031-275-4444,1623,True,{https://xvmpvzldezpoxxsarizm.supabase.co/storage/v1/object/public/facility-images/defaults/charnel_final_1767789315138.jpg},POINT(127.148187270811 37.2707753831425)
신가병원장례식장,funeral_home,광주광역시 광산구 목련로 316 신가병원,35.177416932538,126.82969475809,062-962-4444,1622,True,{https://xvmpvzldezpoxxsarizm.supabase.co/storage/v1/object/public/facility-images/defaults/charnel_final_1767789315138.jpg},POINT(126.82969475809 35.177416932538)
성혜원장례식장,funeral_home,경기도 안성시 남파로 169 성요셉병원 지하,37.0165866380189,127.269051890544,031-671-6500,1621,True,{https://xvmpvzldezpoxxsarizm.supabase.co/storage/v1/object/public/facility-images/defaults/charnel_final_1767789315138.jpg},POINT(127.269051890544 37.0165866380189)
차의과학대학교부속 구미차병원 장례식장,funeral_home,경북 구미시 신시로10길 12,36.1146077721669,128.340463316093,054-450-9984,1702,True,{https://xvmpvzldezpoxxsarizm.supabase.co/storage/v1/object/public/facility-images/defaults/charnel_final_1767789315138.jpg},POINT(128.340463316093 36.1146077721669)
보람의정부장례식장,funeral_home,경기도 의정부시 추동로 253 의정부보람병원,37.7524228038786,127.0808384014,031-851-4444,1619,True,{https://xvmpvzldezpoxxsarizm.supabase.co/storage/v1/object/public/facility-images/defaults/charnel_final_1767789315138.jpg},POINT(127.0808384014 37.7524228038786)
대전장례식장,funeral_home,대전광역시 서구 갑천도시고속도로 1895 대전장례식장,36.3495924057628,127.351363440251,042-532-6444,1615,True,{https://xvmpvzldezpoxxsarizm.supabase.co/storage/v1/object/public/facility-images/defaults/charnel_final_1767789315138.jpg},POINT(127.351363440251 36.3495924057628)
성모장례식장,funeral_home,경기도 성남시 분당구 새나리로 13 성모요양병원 건물 B1,37.4047186267705,127.157066070036,031-704-0404,1614,True,{https://xvmpvzldezpoxxsarizm.supabase.co/storage/v1/object/public/facility-images/defaults/charnel_final_1767789315138.jpg},POINT(127.157066070036 37.4047186267705)
김포연화산추모공원입구,charnel_house,경기도 김포시 하성면 후평리,37.7471081246408,126.655426724079,031-981-1009,1613,True,{https://xvmpvzldezpoxxsarizm.supabase.co/storage/v1/object/public/facility-images/defaults/charnel_final_1767789315138.jpg},POINT(126.655426724079 37.7471081246408)
광주열린병원장례식장,funeral_home,광주광역시 광산구 송도로 271,35.1381092373383,126.798882494775,062-610-9000,1612,True,{https://xvmpvzldezpoxxsarizm.supabase.co/storage/v1/object/public/facility-images/defaults/charnel_final_1767789315138.jpg},POINT(126.798882494775 35.1381092373383)
근로복지공단 안산병원 장례식장,funeral_home,경기도 안산시 상록구 구룡로 87 안산중앙병원,37.3167867532789,126.873990788039,031-501-4646,1551,True,{https://xvmpvzldezpoxxsarizm.supabase.co/storage/v1/object/public/facility-images/defaults/charnel_final_1767789315138.jpg},POINT(126.873990788039 37.3167867532789)
납골탑공원,charnel_house,충청북도 청주시 상당구 가덕면,36.5535696977216,127.548827630272,,1905,True,{https://xvmpvzldezpoxxsarizm.supabase.co/storage/v1/object/public/facility-images/defaults/charnel_final_1767789315138.jpg},POINT(127.548827630272 36.5535696977216)
한림대학교강남성심병원 장례식장,funeral_home,서울특별시 영등포구 신길로 1,37.4932489151953,126.90877588456,02-833-3794,1601,True,{https://xvmpvzldezpoxxsarizm.supabase.co/storage/v1/object/public/facility-images/defaults/charnel_final_1767789315138.jpg},POINT(126.90877588456 37.4932489151953)
삼흥리공설묘지,charnel_house,인천광역시 강화군 양도면 삼흥리 산171,37.6809372954139,126.421874583092,032-937-2001,1422,True,{https://xvmpvzldezpoxxsarizm.supabase.co/storage/v1/object/public/facility-images/defaults/charnel_final_1767789315138.jpg},POINT(126.421874583092 37.6809372954139)
삼성리공동묘지,charnel_house,인천광역시 강화군 불은면 삼성리 산77-2,37.7134372478194,126.448391542621,032-937-5301,1421,True,{https://xvmpvzldezpoxxsarizm.supabase.co/storage/v1/object/public/facility-images/defaults/charnel_final_1767789315138.jpg},POINT(126.448391542621 37.7134372478194)
화순현대병원 장례예식장,funeral_home,전라남도 화순군 화순읍 중앙로 8,35.0601034713349,126.982456961312,061-370-4444,1600,True,{https://xvmpvzldezpoxxsarizm.supabase.co/storage/v1/object/public/facility-images/defaults/charnel_final_1767789315138.jpg},POINT(126.982456961312 35.0601034713349)
포항e요양병원장례식장,funeral_home,경상북도 포항시 북구 중흥로 227,36.0239141119049,129.358312829492,054-272-4414,1599,True,{https://xvmpvzldezpoxxsarizm.supabase.co/storage/v1/object/public/facility-images/defaults/charnel_final_1767789315138.jpg},POINT(129.358312829492 36.0239141119049)
가톨릭대학교 성빈센트병원 장례식장,funeral_home,경기도 수원시 팔달구 중부대로 93 성빈센트병원 장례식장,37.2779235166444,127.027449788982,031-249-8444,1598,True,{https://xvmpvzldezpoxxsarizm.supabase.co/storage/v1/object/public/facility-images/defaults/charnel_final_1767789315138.jpg},POINT(127.027449788982 37.2779235166444)
순천향대학교 부속 부천병원 장례식장,funeral_home,경기도 부천시 원미구 조마루로 170,37.4983707318869,126.762109115188,032-327-4444,1589,True,{https://xvmpvzldezpoxxsarizm.supabase.co/storage/v1/object/public/facility-images/defaults/charnel_final_1767789315138.jpg},POINT(126.762109115188 37.4983707318869)
인제대학교일산백병원 장례식장,funeral_home,경기도 고양시 일산서구 주화로 170 일산백병원,37.6742736163169,126.750380180798,031-910-7114,1592,True,{https://xvmpvzldezpoxxsarizm.supabase.co/storage/v1/object/public/facility-images/defaults/charnel_final_1767789315138.jpg},POINT(126.750380180798 37.6742736163169)
용안천주교장례식장,funeral_home,전라북도 익산시 용안면 현내1로 84,36.1168607040297,126.954822744306,,1593,True,{https://xvmpvzldezpoxxsarizm.supabase.co/storage/v1/object/public/facility-images/defaults/charnel_final_1767789315138.jpg},POINT(126.954822744306 36.1168607040297)
재단법인영봉추모공원,charnel_house,경상북도 영주시 이산면 봉화로 140-42,36.841323686916,128.670372926673,054-633-8700,1594,True,{https://xvmpvzldezpoxxsarizm.supabase.co/storage/v1/object/public/facility-images/defaults/charnel_final_1767789315138.jpg},POINT(128.670372926673 36.841323686916)
약수암영탑추모공원,charnel_house,경기 파주시 파주읍 약수골길 86,37.8227220193909,126.835277461867,031-953-4408,1595,True,{https://xvmpvzldezpoxxsarizm.supabase.co/storage/v1/object/public/facility-images/defaults/charnel_final_1767789315138.jpg},POINT(126.835277461867 37.8227220193909)
일산복음병원 장례식장,funeral_home,경기도 고양시 일산동구 고양대로 760 나동 지하1층 일산복음병원 장례식장,37.681915967889,126.780020487537,031-977-6000,1596,True,{https://xvmpvzldezpoxxsarizm.supabase.co/storage/v1/object/public/facility-images/defaults/charnel_final_1767789315138.jpg},POINT(126.780020487537 37.681915967889)
PH장례식장,funeral_home,경기 부천시 원미구 조마루로 170,37.4983707318869,126.762109115188,032-651-0444,1730,True,{https://xvmpvzldezpoxxsarizm.supabase.co/storage/v1/object/public/facility-images/defaults/charnel_final_1767789315138.jpg},POINT(126.762109115188 37.4983707318869)
신도리34공설묘지,charnel_house,인천광역시 옹진군 북도면 신도리 산153-1,37.5218260027919,126.461900914731,032-899-2333,1204,True,{https://xvmpvzldezpoxxsarizm.supabase.co/storage/v1/object/public/facility-images/defaults/charnel_final_1767789315138.jpg},POINT(126.461900914731 37.5218260027919)
일동면공설묘지,charnel_house,경기도 포천시 일동면 사직리 산141,37.9864311489817,127.345405054344,031-538-4511,1342,True,{https://xvmpvzldezpoxxsarizm.supabase.co/storage/v1/object/public/facility-images/defaults/charnel_final_1767789315138.jpg},POINT(127.345405054344 37.9864311489817)
구미가톨릭요양병원장례식장,funeral_home,경상북도 구미시 야은로 483 구미가톨릭요양병원장례식장,36.1348355800596,128.335597329543,054-442-2323,8766856,True,{https://15774129.go.kr/BCUser/facilitypic/1702274208466.jpg},POINT(128.335597329543 36.1348355800596)
영북면제2공설묘지,charnel_house,경기도 포천시 영북면 자일리 산7,38.1174235637357,127.280654027166,031-538-4611,1353,True,{https://xvmpvzldezpoxxsarizm.supabase.co/storage/v1/object/public/facility-images/defaults/charnel_final_1767789315138.jpg},POINT(127.280654027166 38.1174235637357)
가산면제4공설묘지,charnel_house,경기도 포천시 가산면 우금리 산6-1,37.8395464922341,127.210199689573,031-538-4311,1355,True,{https://xvmpvzldezpoxxsarizm.supabase.co/storage/v1/object/public/facility-images/defaults/charnel_final_1767789315138.jpg},POINT(127.210199689573 37.8395464922341)
가산면제3공설묘지,charnel_house,경기도 포천시 가산면 금현리 740,37.8179293071873,127.189910731819,031-538-4311,1356,True,{https://xvmpvzldezpoxxsarizm.supabase.co/storage/v1/object/public/facility-images/defaults/charnel_final_1767789315138.jpg},POINT(127.189910731819 37.8179293071873)
하양삼성의원장례식장,funeral_home,경상북도 경산시 하양읍 대경로 795 하양삼성병원,35.9151273326973,128.826063773655,053-857-9114,1597,True,{https://xvmpvzldezpoxxsarizm.supabase.co/storage/v1/object/public/facility-images/defaults/charnel_final_1767789315138.jpg},POINT(128.826063773655 35.9151273326973)
왕길조성묘지,charnel_house,인천광역시 서구 왕길동 산116-1,37.5970371935417,126.658210053488,032-522-0507,1271,True,{https://xvmpvzldezpoxxsarizm.supabase.co/storage/v1/object/public/facility-images/defaults/charnel_final_1767789315138.jpg},POINT(126.658210053488 37.5970371935417)
대전한국병원,funeral_home,대전광역시 동구 동서대로 1672 대전한국병원,36.3481758122459,127.43583507554,042-606-1000,1539,True,{https://xvmpvzldezpoxxsarizm.supabase.co/storage/v1/object/public/facility-images/defaults/charnel_final_1767789315138.jpg},POINT(127.43583507554 36.3481758122459)
경기도의료원 파주병원장례식장,funeral_home,경기도 파주시 중앙로 207,37.7548796656889,126.779635781565,031-940-9370,1731,True,{https://xvmpvzldezpoxxsarizm.supabase.co/storage/v1/object/public/facility-images/defaults/charnel_final_1767789315138.jpg},POINT(126.779635781565 37.7548796656889)
사천중앙요양병원 장례식장,funeral_home,경상남도 사천시 사천읍 옥산로 127 사천중앙요양병원 지하1층,35.0791749675966,128.09700089999,055-851-5444,1733,True,{https://xvmpvzldezpoxxsarizm.supabase.co/storage/v1/object/public/facility-images/defaults/charnel_final_1767789315138.jpg},POINT(128.09700089999 35.0791749675966)
제천노인전문요양병원장례식장,funeral_home,충청북도 제천시 북부로13길 94 제천정신병원,37.1234182230646,128.182874332283,043-640-6144,1849,True,{https://xvmpvzldezpoxxsarizm.supabase.co/storage/v1/object/public/facility-images/defaults/charnel_final_1767789315138.jpg},POINT(128.182874332283 37.1234182230646)
미래한국병원장례식장주차장,funeral_home,충청남도 아산시 모종동 568-20,36.7831841207612,127.015985881271,041-531-4444,1848,True,{https://xvmpvzldezpoxxsarizm.supabase.co/storage/v1/object/public/facility-images/defaults/charnel_final_1767789315138.jpg},POINT(127.015985881271 36.7831841207612)
삼광사추모공원,charnel_house,경상북도 성주군 월항면 지방리 23,35.9935166545966,128.312958691138,054-971-5669,1904,True,{https://xvmpvzldezpoxxsarizm.supabase.co/storage/v1/object/public/facility-images/defaults/charnel_final_1767789315138.jpg},POINT(128.312958691138 35.9935166545966)
실로암사랑요양병원장례식장,funeral_home,전북특별자치도 익산시 선화로 389 실로암사랑병원,35.9462504699913,126.973437578811,063-830-6000,1842,True,{https://xvmpvzldezpoxxsarizm.supabase.co/storage/v1/object/public/facility-images/defaults/charnel_final_1767789315138.jpg},POINT(126.973437578811 35.9462504699913)
연세메디하임병원주차장입출구,funeral_home,강원특별자치도 원주시 문막읍 동화리,37.3209434939528,127.841540108849,033-740-8900,1841,True,{https://xvmpvzldezpoxxsarizm.supabase.co/storage/v1/object/public/facility-images/defaults/charnel_final_1767789315138.jpg},POINT(127.841540108849 37.3209434939528)
구미아성장례식장,funeral_home,경상북도 구미시 선기로 155-23,36.1286270142529,128.306999622385,054-442-5555,1840,True,{https://xvmpvzldezpoxxsarizm.supabase.co/storage/v1/object/public/facility-images/defaults/charnel_final_1767789315138.jpg},POINT(128.306999622385 36.1286270142529)
정다운요양병원 장례식장,funeral_home,경남 창원시 마산회원구 봉양로 160,35.2175635753765,128.603752558148,055-244-4444,1839,True,{https://xvmpvzldezpoxxsarizm.supabase.co/storage/v1/object/public/facility-images/defaults/charnel_final_1767789315138.jpg},POINT(128.603752558148 35.2175635753765)
대전선병원장례식장,funeral_home,대전광역시 중구 목중로 29,36.3359392589547,127.410419737647,042-253-4445,1838,True,{https://xvmpvzldezpoxxsarizm.supabase.co/storage/v1/object/public/facility-images/defaults/charnel_final_1767789315138.jpg},POINT(127.410419737647 36.3359392589547)
영주자인병원 장례식장,funeral_home,경북 영주시 대동로31번길 9,36.8158847899167,128.605597376739,054-635-3400,1837,True,{https://xvmpvzldezpoxxsarizm.supabase.co/storage/v1/object/public/facility-images/defaults/charnel_final_1767789315138.jpg},POINT(128.605597376739 36.8158847899167)
예드림장례식장,funeral_home,경기도 동두천시 강변로 422 예드림장례식장,37.906867283707,127.051102512113,031-868-4440,1836,True,{https://xvmpvzldezpoxxsarizm.supabase.co/storage/v1/object/public/facility-images/defaults/charnel_final_1767789315138.jpg},POINT(127.051102512113 37.906867283707)
아산시공설봉안당,charnel_house,충청남도 아산시 송악면 외암로 30-30,36.6534800939981,126.98937391937,041-538-1940,1835,True,{https://xvmpvzldezpoxxsarizm.supabase.co/storage/v1/object/public/facility-images/defaults/charnel_final_1767789315138.jpg},POINT(126.98937391937 36.6534800939981)
대구병원장례식장,funeral_home,대구광역시 북구 칠곡중앙대로 194,35.9132806245916,128.548768822666,053-311-4488,1834,True,{https://xvmpvzldezpoxxsarizm.supabase.co/storage/v1/object/public/facility-images/defaults/charnel_final_1767789315138.jpg},POINT(128.548768822666 35.9132806245916)
막벨라강화추모공원,charnel_house,인천 강화군 송해면 강화대로 879-16,37.7668531918838,126.447216455534,032-933-7133,1833,True,{https://xvmpvzldezpoxxsarizm.supabase.co/storage/v1/object/public/facility-images/defaults/charnel_final_1767789315138.jpg},POINT(126.447216455534 37.7668531918838)
문경장례식장,funeral_home,경상북도 문경시 산양면 서당마길 7-5 문경장례식장,36.6119510552119,128.22441820976,054-555-7000,1832,True,{https://xvmpvzldezpoxxsarizm.supabase.co/storage/v1/object/public/facility-images/defaults/charnel_final_1767789315138.jpg},POINT(128.22441820976 36.6119510552119)
풍기장례식장,funeral_home,경상북도 영주시 풍기읍 안풍로 231,36.8659962218305,128.548226928994,054-637-4442,1850,True,{https://xvmpvzldezpoxxsarizm.supabase.co/storage/v1/object/public/facility-images/defaults/charnel_final_1767789315138.jpg},POINT(128.548226928994 36.8659962218305)
다니엘병원장례식장,funeral_home,경기도 부천시 원미구 중동로 361 지하1층,37.5123479700655,126.76950342075,032-678-4242,1831,True,{https://xvmpvzldezpoxxsarizm.supabase.co/storage/v1/object/public/facility-images/defaults/charnel_final_1767789315138.jpg},POINT(126.76950342075 37.5123479700655)
좋은장례식장,funeral_home,부산광역시 북구 금곡대로 586 금화메디칼,35.2595911258874,129.013802805167,051-911-4444,1829,True,{https://xvmpvzldezpoxxsarizm.supabase.co/storage/v1/object/public/facility-images/defaults/charnel_final_1767789315138.jpg},POINT(129.013802805167 35.2595911258874)
하늘소망추모관,charnel_house,충청남도 당진시 송악읍 조비실길 43-26,36.8971369234239,126.718988789239,041-356-6161,1828,True,{https://xvmpvzldezpoxxsarizm.supabase.co/storage/v1/object/public/facility-images/defaults/charnel_final_1767789315138.jpg},POINT(126.718988789239 36.8971369234239)
한마음효요양병원 장례식장,funeral_home,세종특별자치시 조치원읍 금이로 53-5,36.6332332488342,127.283440470275,044-868-3700,1826,True,{https://xvmpvzldezpoxxsarizm.supabase.co/storage/v1/object/public/facility-images/defaults/charnel_final_1767789315138.jpg},POINT(127.283440470275 36.6332332488342)
송탄장례식장,funeral_home,경기도 평택시 오리곡길 30 송탄장례식장,37.0882647894091,127.071665777457,031-611-4488,1823,True,{https://xvmpvzldezpoxxsarizm.supabase.co/storage/v1/object/public/facility-images/defaults/charnel_final_1767789315138.jpg},POINT(127.071665777457 37.0882647894091)
효성요양병원 장례식장,funeral_home,전남 목포시 양을로 456,34.8138638097961,126.416158371767,061-800-5500,1822,True,{https://xvmpvzldezpoxxsarizm.supabase.co/storage/v1/object/public/facility-images/defaults/charnel_final_1767789315138.jpg},POINT(126.416158371767 34.8138638097961)
신천연합병원장례식장,funeral_home,경기도 시흥시 복지로 57,37.4445299186921,126.789381879949,031-310-6440,1884,True,{https://xvmpvzldezpoxxsarizm.supabase.co/storage/v1/object/public/facility-images/defaults/charnel_final_1767789315138.jpg},POINT(126.789381879949 37.4445299186921)
수원중앙병원장례식장,funeral_home,경기도 수원시 권선구 권선로 654 중앙병원,37.2599787709099,127.022598713466,031-231-8888,1819,True,{https://xvmpvzldezpoxxsarizm.supabase.co/storage/v1/object/public/facility-images/defaults/charnel_final_1767789315138.jpg},POINT(127.022598713466 37.2599787709099)
새로나추모관,charnel_house,광주광역시 북구 동운로52번길 118 새로나추모관,35.1777044562979,126.845768942107,062-531-4444,1818,True,{https://xvmpvzldezpoxxsarizm.supabase.co/storage/v1/object/public/facility-images/defaults/charnel_final_1767789315138.jpg},POINT(126.845768942107 35.1777044562979)
GSH광양서울병원 장례식장,funeral_home,전남 광양시 진등길 93,34.9579159326958,127.690594309358,061-794-4440,1817,True,{https://xvmpvzldezpoxxsarizm.supabase.co/storage/v1/object/public/facility-images/defaults/charnel_final_1767789315138.jpg},POINT(127.690594309358 34.9579159326958)
삼육병원장례식장,funeral_home,경기도 광주시 초월읍 경수길 25,37.4194812369604,127.287075508185,031-760-3644,1816,True,{https://xvmpvzldezpoxxsarizm.supabase.co/storage/v1/object/public/facility-images/defaults/charnel_final_1767789315138.jpg},POINT(127.287075508185 37.4194812369604)
스카이장례식장,funeral_home,광주광역시 광산구 북문대로 603 스카이장례식장 (수완동),35.2052398313158,126.834311201204,062-951-1004,1815,True,{https://xvmpvzldezpoxxsarizm.supabase.co/storage/v1/object/public/facility-images/defaults/charnel_final_1767789315138.jpg},POINT(126.834311201204 35.2052398313158)
진도보배숲추모공원,charnel_house,전라남도 진도군 진도읍 동외리 산43-9,34.4940684400844,126.280919977499,061-544-6101,1814,True,{https://xvmpvzldezpoxxsarizm.supabase.co/storage/v1/object/public/facility-images/defaults/charnel_final_1767789315138.jpg},POINT(126.280919977499 34.4940684400844)
원당장례식장,funeral_home,경기도 고양시 덕양구 고양대로 1359-5,37.6552976493908,126.835479058417,031-965-4444,1813,True,{https://xvmpvzldezpoxxsarizm.supabase.co/storage/v1/object/public/facility-images/defaults/charnel_final_1767789315138.jpg},POINT(126.835479058417 37.6552976493908)
박경리추모공원,charnel_house,경상남도 통영시 산양읍 신전리 1426-9,34.8043209979425,128.405502721209,,1810,True,{https://xvmpvzldezpoxxsarizm.supabase.co/storage/v1/object/public/facility-images/defaults/charnel_final_1767789315138.jpg},POINT(128.405502721209 34.8043209979425)
만평장례식장,funeral_home,광주광역시 광산구 임방울대로 24,35.1634804219166,126.819785762164,062-611-0000,1830,True,{https://xvmpvzldezpoxxsarizm.supabase.co/storage/v1/object/public/facility-images/defaults/charnel_final_1767789315138.jpg},POINT(126.819785762164 35.1634804219166)
남도장례식장,funeral_home,광주광역시 동구 중앙로 283-1 남도장례예식장,35.1569860925716,126.92035328437,062-223-7715,1809,True,{https://xvmpvzldezpoxxsarizm.supabase.co/storage/v1/object/public/facility-images/defaults/charnel_final_1767789315138.jpg},POINT(126.92035328437 35.1569860925716)
대림요양병원장례식장,funeral_home,제주특별자치도 제주시 한림읍 한수풀로 60 제주대림요양병원,33.4185559887206,126.269065287487,064-796-9330,1851,True,{https://xvmpvzldezpoxxsarizm.supabase.co/storage/v1/object/public/facility-images/defaults/charnel_final_1767789315138.jpg},POINT(126.269065287487 33.4185559887206)
김해한솔재활요양병원장례식장,funeral_home,경상남도 김해시 김해대로 2379-1,35.2270804129604,128.887085366827,055-329-3340,1853,True,{https://xvmpvzldezpoxxsarizm.supabase.co/storage/v1/object/public/facility-images/defaults/charnel_final_1767789315138.jpg},POINT(128.887085366827 35.2270804129604)
현대예담문화원,charnel_house,충청남도 태안군 태안읍 환동로 31,36.7501522738475,126.292404141522,041-675-4400,1960,True,{https://xvmpvzldezpoxxsarizm.supabase.co/storage/v1/object/public/facility-images/defaults/charnel_final_1767789315138.jpg},POINT(126.292404141522 36.7501522738475)
의정부 산곡동 추모공원,charnel_house,경기도 의정부시 산곡동 산78-1,37.7173232919633,127.107536194688,010-2387-2127,1937,True,{https://xvmpvzldezpoxxsarizm.supabase.co/storage/v1/object/public/facility-images/defaults/charnel_final_1767789315138.jpg},POINT(127.107536194688 37.7173232919633)
청주추모공원,charnel_house,충청북도 청주시 상당구 월평로184번길 101 충북불교문화회관 4층,36.6079880741978,127.503439423099,043-297-4444,1929,True,{https://xvmpvzldezpoxxsarizm.supabase.co/storage/v1/object/public/facility-images/defaults/charnel_final_1767789315138.jpg},POINT(127.503439423099 36.6079880741978)
횡성군공설추모공원 추모관,charnel_house,강원특별자치도 횡성군 갑천면 태기로구방8길 132 (구방리),37.529137173403,128.080701150593,033-340-2904,1899,True,{https://xvmpvzldezpoxxsarizm.supabase.co/storage/v1/object/public/facility-images/defaults/charnel_final_1767789315138.jpg},POINT(128.080701150593 37.529137173403)
공주나래원봉안당,charnel_house,충청남도 공주시 이인면 삼배실길 70,36.3965170985418,127.041969265311,041-840-8980,1890,True,{https://xvmpvzldezpoxxsarizm.supabase.co/storage/v1/object/public/facility-images/defaults/charnel_final_1767789315138.jpg},POINT(127.041969265311 36.3965170985418)
K마디병원장례식장,funeral_home,대구광역시 북구 팔달로 217 지하,35.8882023390725,128.573910173555,070-4560-1917,1889,True,{https://xvmpvzldezpoxxsarizm.supabase.co/storage/v1/object/public/facility-images/defaults/charnel_final_1767789315138.jpg},POINT(128.573910173555 35.8882023390725)
연세대학교 신촌장례식장,funeral_home,서울특별시 서대문구 연세로 50,37.5660508394158,126.943916239886,02-2227-7500,1885,True,{https://xvmpvzldezpoxxsarizm.supabase.co/storage/v1/object/public/facility-images/defaults/charnel_final_1767789315138.jpg},POINT(126.943916239886 37.5660508394158)
대구기독병원장례식장,funeral_home,대구광역시 달서구 달구벌대로 1750,35.8571674676961,128.556979494919,053-627-4447,19711054,True,{https://15774129.go.kr/BCUser/facilitypic/1000000197/1555488107596.png},POINT(128.556979494919 35.8571674676961)
가족사랑장례식장,funeral_home,전북특별자치도 김제시 하동1길 13,35.8167836203123,126.891787812555,063-545-4004,1881,True,{https://xvmpvzldezpoxxsarizm.supabase.co/storage/v1/object/public/facility-images/defaults/charnel_final_1767789315138.jpg},POINT(126.891787812555 35.8167836203123)
지샘병원 장례식장,funeral_home,경기도 군포시 군포로 591,37.3586931783039,126.947278422291,031-389-3770,1880,True,{https://xvmpvzldezpoxxsarizm.supabase.co/storage/v1/object/public/facility-images/defaults/charnel_final_1767789315138.jpg},POINT(126.947278422291 37.3586931783039)
하늘안추모공원,charnel_house,경기도 양주시 평화로1261번길 372-146,37.8100989939453,127.023108509429,1588-9329,1879,True,{https://xvmpvzldezpoxxsarizm.supabase.co/storage/v1/object/public/facility-images/defaults/charnel_final_1767789315138.jpg},POINT(127.023108509429 37.8100989939453)
석곡장례식장,funeral_home,전라남도 곡성군 석곡면 주석로 657-5,35.1296355328713,127.25121000358,061-362-0088,1878,True,{https://xvmpvzldezpoxxsarizm.supabase.co/storage/v1/object/public/facility-images/defaults/charnel_final_1767789315138.jpg},POINT(127.25121000358 35.1296355328713)
의정부장례식장,funeral_home,경기도 의정부시 체육로 113-18,37.7574245622078,127.022224217253,031-871-4444,1877,True,{https://xvmpvzldezpoxxsarizm.supabase.co/storage/v1/object/public/facility-images/defaults/charnel_final_1767789315138.jpg},POINT(127.022224217253 37.7574245622078)
청송농협장례식장,funeral_home,경상북도 청송군 청송읍 의료원길 19,36.4311427144152,129.05177099797,070-4560-1710,1876,True,{https://xvmpvzldezpoxxsarizm.supabase.co/storage/v1/object/public/facility-images/defaults/charnel_final_1767789315138.jpg},POINT(129.05177099797 36.4311427144152)
천불사 수목장,charnel_house,경상남도 밀양시 삼랑진읍 행곡3길 68-72 (행곡리),35.4210142252208,128.907605952049,055-364-1007,1852,True,{https://xvmpvzldezpoxxsarizm.supabase.co/storage/v1/object/public/facility-images/defaults/charnel_final_1767789315138.jpg},POINT(128.907605952049 35.4210142252208)
정원장례식장,funeral_home,전라남도 순천시 서면 삼산로 290,34.9878019198716,127.505659319372,061-754-4444,1956,True,{https://xvmpvzldezpoxxsarizm.supabase.co/storage/v1/object/public/facility-images/defaults/charnel_final_1767789315138.jpg},POINT(127.505659319372 34.9878019198716)
예담장례식장,funeral_home,경기도 파주시 문산읍 화석정로 31,37.8766064224543,126.804543149897,031-959-4444,1954,True,{https://xvmpvzldezpoxxsarizm.supabase.co/storage/v1/object/public/facility-images/defaults/charnel_final_1767789315138.jpg},POINT(126.804543149897 37.8766064224543)
효자추모관,charnel_house,전북특별자치도 전주시 완산구 콩쥐팥쥐로 1705-31,35.8246283201428,127.084302627789,010-9400-3832,1953,True,{https://xvmpvzldezpoxxsarizm.supabase.co/storage/v1/object/public/facility-images/defaults/charnel_final_1767789315138.jpg},POINT(127.084302627789 35.8246283201428)
일영수목장,charnel_house,경기 양주시 장흥면 호국로 156,37.7152616103954,126.939347391351,010-4316-1042,1952,True,{https://xvmpvzldezpoxxsarizm.supabase.co/storage/v1/object/public/facility-images/defaults/charnel_final_1767789315138.jpg},POINT(126.939347391351 37.7152616103954)
하늘가장례식장,funeral_home,경기도 화성시 향남읍 발안로 322,37.1328356296694,126.942014207407,031-366-4444,1947,True,{https://xvmpvzldezpoxxsarizm.supabase.co/storage/v1/object/public/facility-images/defaults/charnel_final_1767789315138.jpg},POINT(126.942014207407 37.1328356296694)
추모공원휴,charnel_house,서울 송파구 송파대로 167,37.4846614982049,127.120933640924,02-421-7000,1946,True,{https://xvmpvzldezpoxxsarizm.supabase.co/storage/v1/object/public/facility-images/defaults/charnel_final_1767789315138.jpg},POINT(127.120933640924 37.4846614982049)
공동장례식장,funeral_home,제주특별자치도 서귀포시 남원읍 서성로 955-24,33.3390462973962,126.694629066338,,1874,True,{https://xvmpvzldezpoxxsarizm.supabase.co/storage/v1/object/public/facility-images/defaults/charnel_final_1767789315138.jpg},POINT(126.694629066338 33.3390462973962)
표선복합문화센터 장례식장,funeral_home,제주특별자치도 서귀포시 표선면 표선관정로 48-36,33.3277502231733,126.823681705546,,1873,True,{https://xvmpvzldezpoxxsarizm.supabase.co/storage/v1/object/public/facility-images/defaults/charnel_final_1767789315138.jpg},POINT(126.823681705546 33.3277502231733)
동안산병원 장례식장,funeral_home,경기도 안산시 상록구 월피로 88 동안산병원 지하2층,37.335912833667,126.853026681325,031-8042-4440,1928,True,{https://xvmpvzldezpoxxsarizm.supabase.co/storage/v1/object/public/facility-images/defaults/charnel_final_1767789315138.jpg},POINT(126.853026681325 37.335912833667)
건양대학교부여병원장례식장,funeral_home,충청남도 부여군 부여읍 계백로 200,36.2750063877471,126.902246330995,041-834-4444,1861,True,{https://xvmpvzldezpoxxsarizm.supabase.co/storage/v1/object/public/facility-images/defaults/charnel_final_1767789315138.jpg},POINT(126.902246330995 36.2750063877471)
강촌수목장추모공원,charnel_house,강원특별자치도 춘천시 남산면 봉의텃골길 149-10,37.7646320175808,127.691809546847,033-243-3654,1860,True,{https://xvmpvzldezpoxxsarizm.supabase.co/storage/v1/object/public/facility-images/defaults/charnel_final_1767789315138.jpg},POINT(127.691809546847 37.7646320175808)
수도권추모공원 분당납골당,charnel_house,경기 광주시 오포로 211-49,37.3548404400033,127.181993112494,1661-9383,1859,True,{https://xvmpvzldezpoxxsarizm.supabase.co/storage/v1/object/public/facility-images/defaults/charnel_final_1767789315138.jpg},POINT(127.181993112494 37.3548404400033)
벽제중앙추모공원,charnel_house,경기도 고양시 덕양구 통일로414번길 196,37.6763582131904,126.892002649439,031-964-7799,1858,True,{https://xvmpvzldezpoxxsarizm.supabase.co/storage/v1/object/public/facility-images/defaults/charnel_final_1767789315138.jpg},POINT(126.892002649439 37.6763582131904)
CHA의과학대학교 구미차병원 장례식장,funeral_home,경상북도 구미시 신시로10길 12,36.1146077721669,128.340463316093,054-452-0069,1856,True,{https://xvmpvzldezpoxxsarizm.supabase.co/storage/v1/object/public/facility-images/defaults/charnel_final_1767789315138.jpg},POINT(128.340463316093 36.1146077721669)
강릉동인병원장례식장,funeral_home,강원특별자치도 강릉시 강릉대로419번길 42 동인병원,37.7744805479363,128.907437336497,033-650-6165,1854,True,{https://xvmpvzldezpoxxsarizm.supabase.co/storage/v1/object/public/facility-images/defaults/charnel_final_1767789315138.jpg},POINT(128.907437336497 37.7744805479363)
정안수목장,charnel_house,충청남도 공주시 정안면 차령고개로 17-57 정안수목장,36.6277056569899,127.117739328387,1599-9914,1955,True,{https://xvmpvzldezpoxxsarizm.supabase.co/storage/v1/object/public/facility-images/defaults/charnel_final_1767789315138.jpg},POINT(127.117739328387 36.6277056569899)
한림대학교동탄성심병원 장례식장,funeral_home,경기도 화성시 큰재봉길 7,37.2165141525338,127.079950171869,031-8003-4410,1808,True,{https://xvmpvzldezpoxxsarizm.supabase.co/storage/v1/object/public/facility-images/defaults/charnel_final_1767789315138.jpg},POINT(127.079950171869 37.2165141525338)
한사랑요양병원장례식장,funeral_home,경기도 파주시 파주읍 통일로 1568,37.847923531794,126.790805577218,031-953-7900,1807,True,{https://xvmpvzldezpoxxsarizm.supabase.co/storage/v1/object/public/facility-images/defaults/charnel_final_1767789315138.jpg},POINT(126.790805577218 37.847923531794)
영광농협장례식장,funeral_home,전라남도 영광군 영광읍 영대로 213,35.2873461198178,126.50895887449,061-353-0444,1806,True,{https://xvmpvzldezpoxxsarizm.supabase.co/storage/v1/object/public/facility-images/defaults/charnel_final_1767789315138.jpg},POINT(126.50895887449 35.2873461198178)
보령아산병원,funeral_home,충청남도 보령시 죽성로 136,36.3811991704527,126.622834746898,041-930-5114,1763,True,{https://xvmpvzldezpoxxsarizm.supabase.co/storage/v1/object/public/facility-images/defaults/charnel_final_1767789315138.jpg},POINT(126.622834746898 36.3811991704527)
메트로병원 장례식장,funeral_home,경기도 안양시 만안구 명학로33번길 8,37.3782872583832,126.935639959301,031-449-9000,1762,True,{https://xvmpvzldezpoxxsarizm.supabase.co/storage/v1/object/public/facility-images/defaults/charnel_final_1767789315138.jpg},POINT(126.935639959301 37.3782872583832)
안산장례식장,funeral_home,경기도 안산시 상록구 선진안길 33,37.2805403411691,126.845287766711,031-419-4400,1760,True,{https://xvmpvzldezpoxxsarizm.supabase.co/storage/v1/object/public/facility-images/defaults/charnel_final_1767789315138.jpg},POINT(126.845287766711 37.2805403411691)
고려대학교 안산병원 장례식장,funeral_home,경기도 안산시 단원구 적금로 123 고려대학교 안산병원장례식장,37.3188584497967,126.824999466436,031-411-4441,1759,True,{https://xvmpvzldezpoxxsarizm.supabase.co/storage/v1/object/public/facility-images/defaults/charnel_final_1767789315138.jpg},POINT(126.824999466436 37.3188584497967)
기업 인천힘찬종합병원장례식장 ATM,funeral_home,인천광역시 남동구 논현로 72 지하1층,37.4010621359147,126.714684810294,1899-2220,2131885353,True,{https://places.googleapis.com/v1/places/ChIJUbB3qud7ezURs4nviFOOuys/photos/AZLasHrLCKruXVKLaO76_gDuL9OEXfIM3xn7yBNQsjRk0M8YEWONajxy3lwtXlc9iYyCvFUpARRzGVt9EY54IYK54lpqyTUQ1hGkvLq-uKENhqDo4PcIUnl4Xp7xBR2ED2ewbNP5xbdBXo0ppGtmbuuMcKvNS59sXrbGhPKkDdukifqreDvbMT9TQNI7PTuX9mykB-UTuXJ1Sjzx-7H1iK5rpCq-bJvfKO0YZDr4HEPpKaBHg0RdC_8I-5HL7260DPALmS9JF4Ro6y7LF2uw-gu2JSzwpo-cPAyLp7Orb53BG73F8Q6p7NIW1WefNfSmmoBRGtbqBk3AcwhOkogpDERxMCvJ-kjGIvQGi1z8Aj5kbIAGZXlO7xp1pWJmiu0caHsreWIPYBmxu02Tos6sMvAIGbZp6zbUUpv6dxloNH7wEXTagi0/media?maxHeightPx=800&maxWidthPx=800&key=AIzaSyBS18mDdul10bgKMyu15WPpevY1Y_jZBTg},POINT(126.714684810294 37.4010621359147)
CHA의과대학교 분당차병원 장례식장,funeral_home,경기도 성남시 분당구 야탑로 59 차의과학대학교분당차병원,37.4104661093887,127.125836917568,031-780-6170,1758,True,{https://xvmpvzldezpoxxsarizm.supabase.co/storage/v1/object/public/facility-images/defaults/charnel_final_1767789315138.jpg},POINT(127.125836917568 37.4104661093887)
녹색병원장례식장,funeral_home,서울특별시 중랑구 사가정로49길 53 원진재단부설녹색병원,37.5835639827081,127.086060385744,02-493-4444,1757,True,{https://xvmpvzldezpoxxsarizm.supabase.co/storage/v1/object/public/facility-images/defaults/charnel_final_1767789315138.jpg},POINT(127.086060385744 37.5835639827081)
대원장례식장,funeral_home,광주 북구 삼소로 133-22,35.2347776198761,126.847856717,062-364-4444,1756,True,{https://xvmpvzldezpoxxsarizm.supabase.co/storage/v1/object/public/facility-images/defaults/charnel_final_1767789315138.jpg},POINT(126.847856717 35.2347776198761)
하늘원,charnel_house,강원특별자치도 원주시 흥업면 사제로 539,37.3356863217203,127.892723867127,033-763-4444,1755,True,{https://xvmpvzldezpoxxsarizm.supabase.co/storage/v1/object/public/facility-images/defaults/charnel_final_1767789315138.jpg},POINT(127.892723867127 37.3356863217203)
새롬재활요양병원장례식장,funeral_home,경상남도 함안군 칠원읍 예곡1길 13,35.2758693559974,128.531744753395,055-580-5800,1754,True,{https://xvmpvzldezpoxxsarizm.supabase.co/storage/v1/object/public/facility-images/defaults/charnel_final_1767789315138.jpg},POINT(128.531744753395 35.2758693559974)
청양훈요양병원장례식장,funeral_home,충청남도 청양군 청양읍 칠갑산로 157,36.4508377126523,126.793244140627,041-943-8114,1753,True,{https://xvmpvzldezpoxxsarizm.supabase.co/storage/v1/object/public/facility-images/defaults/charnel_final_1767789315138.jpg},POINT(126.793244140627 36.4508377126523)
문경제일병원장례식장,funeral_home,경상북도 문경시 당교3길 25 문경제일병원,36.5844754231927,128.189328677908,054-550-7948,1752,True,{https://xvmpvzldezpoxxsarizm.supabase.co/storage/v1/object/public/facility-images/defaults/charnel_final_1767789315138.jpg},POINT(128.189328677908 36.5844754231927)
교하장례식장,funeral_home,경기도 파주시 하지석길 45 교하장례식장,37.7547381122006,126.742271735319,031-944-4449,1750,True,{https://xvmpvzldezpoxxsarizm.supabase.co/storage/v1/object/public/facility-images/defaults/charnel_final_1767789315138.jpg},POINT(126.742271735319 37.7547381122006)
서울재활요양병원 장례식장,funeral_home,경기 동두천시 천보산로 504,37.8799344837486,127.101567959462,,1749,True,{https://xvmpvzldezpoxxsarizm.supabase.co/storage/v1/object/public/facility-images/defaults/charnel_final_1767789315138.jpg},POINT(127.101567959462 37.8799344837486)
김포문수산수목장,charnel_house,경기도 김포시 월곶면 문수산로 8,37.730961822148,126.5294967947,031-985-5155,1764,True,{https://xvmpvzldezpoxxsarizm.supabase.co/storage/v1/object/public/facility-images/defaults/charnel_final_1767789315138.jpg},POINT(126.5294967947 37.730961822148)
통영시추모공원,charnel_house,경상남도 통영시 장대길 115,34.8525024393484,128.439815701907,055-650-4883,1812,True,{https://xvmpvzldezpoxxsarizm.supabase.co/storage/v1/object/public/facility-images/defaults/charnel_final_1767789315138.jpg},POINT(128.439815701907 34.8525024393484)
만어추모공원수목장,charnel_house,경상남도 밀양시 삼랑진읍 단장로 439,35.4500034207081,128.869315657014,055-356-4979,1747,True,{https://xvmpvzldezpoxxsarizm.supabase.co/storage/v1/object/public/facility-images/defaults/charnel_final_1767789315138.jpg},POINT(128.869315657014 35.4500034207081)
계명대학교 대구동산병원 장례식장,funeral_home,대구광역시 중구 달성로 56 동산의료원,35.8683789217735,128.582950572672,053-250-8451,25083503,True,{https://15774129.go.kr/BCUser/facilitypic/7000002206/1555306275605.jpg},POINT(128.582950572672 35.8683789217735)
덕안사추모공원,charnel_house,대구광역시 달성군 가창면 용계리 산3-1 대한불교조계종 딕안사,35.8030557188488,128.627382986998,053-621-4444,1746,True,{https://xvmpvzldezpoxxsarizm.supabase.co/storage/v1/object/public/facility-images/defaults/charnel_final_1767789315138.jpg},POINT(128.627382986998 35.8030557188488)
울산중앙병원 장례식장,funeral_home,울산 남구 문수로480번길 10,35.5315320425465,129.305197049697,052-260-1006,1745,True,{https://xvmpvzldezpoxxsarizm.supabase.co/storage/v1/object/public/facility-images/defaults/charnel_final_1767789315138.jpg},POINT(129.305197049697 35.5315320425465)
광양시립공원묘지 영세장,charnel_house,전남 광양시 광양읍 직동1길 300,34.9930928295533,127.64305837334,061-762-4449,1742,True,{https://xvmpvzldezpoxxsarizm.supabase.co/storage/v1/object/public/facility-images/defaults/charnel_final_1767789315138.jpg},POINT(127.64305837334 34.9930928295533)
대정읍봉안당,charnel_house,제주특별자치도 서귀포시 대정읍 일주서로2498번길 133-27,33.2408627124084,126.263118132536,064-760-4031,1741,True,{https://xvmpvzldezpoxxsarizm.supabase.co/storage/v1/object/public/facility-images/defaults/charnel_final_1767789315138.jpg},POINT(126.263118132536 33.2408627124084)
청양군추모공원 공설묘지,charnel_house,충남 청양군 화성면 신수길 142-18,36.46243687935,126.721681035171,041-942-5226,1740,True,{https://xvmpvzldezpoxxsarizm.supabase.co/storage/v1/object/public/facility-images/defaults/charnel_final_1767789315138.jpg},POINT(126.721681035171 36.46243687935)
경기도의료원이천병원장례식장,funeral_home,경기도 이천시 경충대로 2742 경기도립의료원이천병원,37.2828228641935,127.433238256825,031-630-4478,1739,True,{https://xvmpvzldezpoxxsarizm.supabase.co/storage/v1/object/public/facility-images/defaults/charnel_final_1767789315138.jpg},POINT(127.433238256825 37.2828228641935)
광명성애병원장례식장,funeral_home,경기도 광명시 디지털로 36 광명성애병원,37.4736622838936,126.871332367803,02-2684-4444,1738,True,{https://xvmpvzldezpoxxsarizm.supabase.co/storage/v1/object/public/facility-images/defaults/charnel_final_1767789315138.jpg},POINT(126.871332367803 37.4736622838936)
봉화해성병원장례식장,funeral_home,경상북도 봉화군 봉화읍 보밑길 9 봉화군립노인전문요양병원,36.8917490647685,128.733785762077,054-674-0015,1737,True,{https://xvmpvzldezpoxxsarizm.supabase.co/storage/v1/object/public/facility-images/defaults/charnel_final_1767789315138.jpg},POINT(128.733785762077 36.8917490647685)
대한적십자 상주병원 장례식장,funeral_home,경북 상주시 상서문로 53,36.4144241590954,128.155164301272,054-530-3018,1736,True,{https://xvmpvzldezpoxxsarizm.supabase.co/storage/v1/object/public/facility-images/defaults/charnel_final_1767789315138.jpg},POINT(128.155164301272 36.4144241590954)
포항전문장례식장,funeral_home,경북 포항시 북구 흥해읍 동해대로 997,36.0684852513206,129.323139106805,054-253-4444,1735,True,{https://xvmpvzldezpoxxsarizm.supabase.co/storage/v1/object/public/facility-images/defaults/charnel_final_1767789315138.jpg},POINT(129.323139106805 36.0684852513206)
근로복지공단인천병원장례식장,funeral_home,인천광역시 부평구 무네미로 446,37.4759900380793,126.753981797473,032-524-4444,1792,True,{https://xvmpvzldezpoxxsarizm.supabase.co/storage/v1/object/public/facility-images/defaults/charnel_final_1767789315138.jpg},POINT(126.753981797473 37.4759900380793)
우리병원장례식장,funeral_home,경기도 포천시 소흘읍 호국로 661 신관 지하 1층,37.8274854127622,127.14813856865,031-542-0444,1734,True,{https://xvmpvzldezpoxxsarizm.supabase.co/storage/v1/object/public/facility-images/defaults/charnel_final_1767789315138.jpg},POINT(127.14813856865 37.8274854127622)
윤서병원장례식장,funeral_home,경기도 구리시 건원대로99번길 123 윤서병원,37.6049376543694,127.139293555242,031-562-4444,1811,True,{https://xvmpvzldezpoxxsarizm.supabase.co/storage/v1/object/public/facility-images/defaults/charnel_final_1767789315138.jpg},POINT(127.139293555242 37.6049376543694)
세종여주병원장례식장,funeral_home,경기도 여주시 청심로 39 세종여주병원 지층,37.3014799871914,127.625319684824,031-886-4496,1765,True,{https://xvmpvzldezpoxxsarizm.supabase.co/storage/v1/object/public/facility-images/defaults/charnel_final_1767789315138.jpg},POINT(127.625319684824 37.3014799871914)
동군산병원장례식장,funeral_home,전북특별자치도 군산시 조촌로 155,35.9779675026638,126.737097130868,,1827,True,{https://xvmpvzldezpoxxsarizm.supabase.co/storage/v1/object/public/facility-images/defaults/charnel_final_1767789315138.jpg},POINT(126.737097130868 35.9779675026638)
화환꽃집국화원장례식장대학병원조화꽃화분,funeral_home,대구광역시 북구 학정동,35.9516875395389,128.567565795189,,1767,True,{https://xvmpvzldezpoxxsarizm.supabase.co/storage/v1/object/public/facility-images/defaults/charnel_final_1767789315138.jpg},POINT(128.567565795189 35.9516875395389)
한마음병원장례식장,funeral_home,경상남도 사천시 향촌4길 127 한마음병원,34.9350251020044,128.098156399076,055-835-2410,9577059,True,{https://15774129.go.kr/BCUser/facilitypic/7000001110/1559110980285.png},POINT(128.098156399076 34.9350251020044)
청송진보병원장례식장,funeral_home,경상북도 청송군 진보면 경동로 4003,36.5357866408955,129.026648590098,,1805,True,{https://xvmpvzldezpoxxsarizm.supabase.co/storage/v1/object/public/facility-images/defaults/charnel_final_1767789315138.jpg},POINT(129.026648590098 36.5357866408955)
부산의료원 장례식장,funeral_home,부산광역시 연제구 월드컵대로 359 부산의료원,35.187431768268,129.060181218712,051-607-2990,1802,True,{https://xvmpvzldezpoxxsarizm.supabase.co/storage/v1/object/public/facility-images/defaults/charnel_final_1767789315138.jpg},POINT(129.060181218712 35.187431768268)
에버그린수목장,charnel_house,경기도 안성시 양성면 동항리 110-8,37.0701004879553,127.19924628238,031-673-4785,1801,True,{https://xvmpvzldezpoxxsarizm.supabase.co/storage/v1/object/public/facility-images/defaults/charnel_final_1767789315138.jpg},POINT(127.19924628238 37.0701004879553)
영평사 봉안당,charnel_house,경기도 안성시 보개면 신장길 79-42 (신장리),37.0426249416106,127.283173746283,031-676-3960,1866,True,{https://xvmpvzldezpoxxsarizm.supabase.co/storage/v1/object/public/facility-images/defaults/charnel_final_1767789315138.jpg},POINT(127.283173746283 37.0426249416106)
국립서울현충원봉안식장,charnel_house,서울특별시 동작구 현충로 210,37.4998236507216,126.978408414947,,1865,True,{https://xvmpvzldezpoxxsarizm.supabase.co/storage/v1/object/public/facility-images/defaults/charnel_final_1767789315138.jpg},POINT(126.978408414947 37.4998236507216)
동화추모공원,charnel_house,경기도 용인시 처인구 백암면 한택로71번길 19,37.0988428509971,127.400948539832,031-337-0104,1799,True,{https://xvmpvzldezpoxxsarizm.supabase.co/storage/v1/object/public/facility-images/defaults/charnel_final_1767789315138.jpg},POINT(127.400948539832 37.0988428509971)
아주대학교병원 장례식장,funeral_home,경기도 수원시 영통구 광교중앙로49번길 46,37.2809354218523,127.049600304681,031-219-6975,1798,True,{https://xvmpvzldezpoxxsarizm.supabase.co/storage/v1/object/public/facility-images/defaults/charnel_final_1767789315138.jpg},POINT(127.049600304681 37.2809354218523)
경상남도마산의료원 장례식장,funeral_home,경상남도 창원시 마산합포구 3·15대로 231 마산의료원,35.1991716603293,128.56555996711,055-249-1700,1797,True,{https://xvmpvzldezpoxxsarizm.supabase.co/storage/v1/object/public/facility-images/defaults/charnel_final_1767789315138.jpg},POINT(128.56555996711 35.1991716603293)
홍성추모공원 기존화장장,charnel_house,충남 홍성군 금마면 봉서리 117,36.6094119453906,126.764017008466,,1796,True,{https://xvmpvzldezpoxxsarizm.supabase.co/storage/v1/object/public/facility-images/defaults/charnel_final_1767789315138.jpg},POINT(126.764017008466 36.6094119453906)
강원도삼척의료원 장례식장,funeral_home,강원특별자치도 삼척시 오십천로 418,37.4403271745996,129.16334276516,033-570-7450,1795,True,{https://xvmpvzldezpoxxsarizm.supabase.co/storage/v1/object/public/facility-images/defaults/charnel_final_1767789315138.jpg},POINT(129.16334276516 37.4403271745996)
영남대학교병원 장례식장,funeral_home,대구광역시 남구 현충로 170,35.8476701950372,128.584203505219,053-620-4647,1794,True,{https://xvmpvzldezpoxxsarizm.supabase.co/storage/v1/object/public/facility-images/defaults/charnel_final_1767789315138.jpg},POINT(128.584203505219 35.8476701950372)
세림병원장례식장,funeral_home,인천광역시 부평구 부평대로 175,37.5067418478504,126.719935351107,032-523-8844,1793,True,{https://xvmpvzldezpoxxsarizm.supabase.co/storage/v1/object/public/facility-images/defaults/charnel_final_1767789315138.jpg},POINT(126.719935351107 37.5067418478504)
가톨릭대학교 대전성모병원 장례식장,funeral_home,대전광역시 중구 대흥로 64,36.3219928632375,127.420211690552,042-220-9870,1791,True,{https://xvmpvzldezpoxxsarizm.supabase.co/storage/v1/object/public/facility-images/defaults/charnel_final_1767789315138.jpg},POINT(127.420211690552 36.3219928632375)
홍성추모공원 유택동산,charnel_house,충남 홍성군 금마면 봉서리 117,36.6094119453906,126.764017008466,,1790,True,{https://xvmpvzldezpoxxsarizm.supabase.co/storage/v1/object/public/facility-images/defaults/charnel_final_1767789315138.jpg},POINT(126.764017008466 36.6094119453906)
홍성추모공원 화장장,charnel_house,충남 홍성군 금마면 금마로516번길 85,36.6098623357738,126.764154015042,041-630-9824,1789,True,{https://xvmpvzldezpoxxsarizm.supabase.co/storage/v1/object/public/facility-images/defaults/charnel_final_1767789315138.jpg},POINT(126.764154015042 36.6098623357738)
탑동추모공원,charnel_house,경기도 동두천시 천보산로359번길 22,37.8663340722941,127.105920952428,031-867-5761,1788,True,{https://xvmpvzldezpoxxsarizm.supabase.co/storage/v1/object/public/facility-images/defaults/charnel_final_1767789315138.jpg},POINT(127.105920952428 37.8663340722941)
순천향대학교 부속 구미병원 장례식장,funeral_home,경상북도 구미시 1공단로 179 순천향병원,36.1034159338514,128.382170263679,054-464-4444,1768,True,{https://xvmpvzldezpoxxsarizm.supabase.co/storage/v1/object/public/facility-images/defaults/charnel_final_1767789315138.jpg},POINT(128.382170263679 36.1034159338514)
의정부백병원장례식장,funeral_home,경기도 의정부시 금신로 322,37.7453310934281,127.06214238551,031-844-4450,1771,True,{https://xvmpvzldezpoxxsarizm.supabase.co/storage/v1/object/public/facility-images/defaults/charnel_final_1767789315138.jpg},POINT(127.06214238551 37.7453310934281)
광주병원장례식장,funeral_home,광주광역시 북구 면앙로139번길 51 광주병원,35.1788796418583,126.928152849136,062-260-7850,1772,True,{https://xvmpvzldezpoxxsarizm.supabase.co/storage/v1/object/public/facility-images/defaults/charnel_final_1767789315138.jpg},POINT(126.928152849136 35.1788796418583)
수성메트로병원장례식장,funeral_home,대구광역시 수성구 무열로 5 수성메트로병원,35.8594452382485,128.646013446727,1577-1044,1773,True,{https://xvmpvzldezpoxxsarizm.supabase.co/storage/v1/object/public/facility-images/defaults/charnel_final_1767789315138.jpg},POINT(128.646013446727 35.8594452382485)
인창요양병원장례식장,funeral_home,부산광역시 동구 중앙대로 281,35.1217979405971,129.042953743585,051-464-5858,1774,True,{https://xvmpvzldezpoxxsarizm.supabase.co/storage/v1/object/public/facility-images/defaults/charnel_final_1767789315138.jpg},POINT(129.042953743585 35.1217979405971)
행림요양병원장례식장,funeral_home,부산광역시 금정구 중앙대로 1905 행림병원장례식장,35.2544487795899,129.091044989253,051-582-1024,1776,True,{https://xvmpvzldezpoxxsarizm.supabase.co/storage/v1/object/public/facility-images/defaults/charnel_final_1767789315138.jpg},POINT(129.091044989253 35.2544487795899)
제주의료원 장례식장,funeral_home,제주특별자치도 제주시 산천단남길 10,33.4448911815459,126.560846900382,,1732,True,{https://xvmpvzldezpoxxsarizm.supabase.co/storage/v1/object/public/facility-images/defaults/charnel_final_1767789315138.jpg},POINT(126.560846900382 33.4448911815459)
한도병원장례식장,funeral_home,경기도 안산시 단원구 선부광장로 103 대아한도병원,37.3340551147876,126.807619436023,031-485-4422,1777,True,{https://xvmpvzldezpoxxsarizm.supabase.co/storage/v1/object/public/facility-images/defaults/charnel_final_1767789315138.jpg},POINT(126.807619436023 37.3340551147876)
에스엠지 연세병원 장례식장,funeral_home,경상남도 창원시 마산합포구 3·15대로 76 에스엠지 연세병원 장례식장,35.186314756521,128.561601332208,055-223-1000,1779,True,{https://xvmpvzldezpoxxsarizm.supabase.co/storage/v1/object/public/facility-images/defaults/charnel_final_1767789315138.jpg},POINT(128.561601332208 35.186314756521)
동마산병원장례식장,funeral_home,경상남도 창원시 마산회원구 3·15대로 681 동마산병원 지하2층,35.2338663511304,128.578303752851,055-290-5044,1780,True,{https://xvmpvzldezpoxxsarizm.supabase.co/storage/v1/object/public/facility-images/defaults/charnel_final_1767789315138.jpg},POINT(128.578303752851 35.2338663511304)
사랑의병원 장례식장,funeral_home,경기도 안산시 상록구 예술광장로 69 사랑의병원,37.3269253519698,126.844934108764,031-438-4444,1781,True,{https://xvmpvzldezpoxxsarizm.supabase.co/storage/v1/object/public/facility-images/defaults/charnel_final_1767789315138.jpg},POINT(126.844934108764 37.3269253519698)
동래봉생병원SKY보람장례식장,funeral_home,부산광역시 동래구 충렬대로348번길 23 동래봉생병원sky보람장례식장,35.1966755115841,129.095926577123,051-531-7100,1784,True,{https://xvmpvzldezpoxxsarizm.supabase.co/storage/v1/object/public/facility-images/defaults/charnel_final_1767789315138.jpg},POINT(129.095926577123 35.1966755115841)
영천참좋은요양병원장례식장,funeral_home,경상북도 영천시 망정1길 32,35.9762239323701,128.948834738141,054-338-1024,1785,True,{https://xvmpvzldezpoxxsarizm.supabase.co/storage/v1/object/public/facility-images/defaults/charnel_final_1767789315138.jpg},POINT(128.948834738141 35.9762239323701)
천지장례식장,funeral_home,광주광역시 서구 풍서좌로 173-1,35.1247532224308,126.850047894435,062-527-1000,1847,True,{https://xvmpvzldezpoxxsarizm.supabase.co/storage/v1/object/public/facility-images/defaults/charnel_final_1767789315138.jpg},POINT(126.850047894435 35.1247532224308)
고려대학교구로병원 장례식장,funeral_home,서울특별시 구로구 구로동로 148 고대구로병원,37.4911503253664,126.884511034177,02-857-0444,1778,True,{https://xvmpvzldezpoxxsarizm.supabase.co/storage/v1/object/public/facility-images/defaults/charnel_final_1767789315138.jpg},POINT(126.884511034177 37.4911503253664)
나주애향장례식장,funeral_home,전라남도 나주시 청동길 147,35.0455866773154,126.732415659045,,1971,True,{https://xvmpvzldezpoxxsarizm.supabase.co/storage/v1/object/public/facility-images/defaults/charnel_final_1767789315138.jpg},POINT(126.732415659045 35.0455866773154)
근로복지공단대전병원장례식장,funeral_home,대전광역시 대덕구 계족로 637 대전중앙병원,36.3692226389729,127.427893917601,042-670-5444,1538,True,{https://xvmpvzldezpoxxsarizm.supabase.co/storage/v1/object/public/facility-images/defaults/charnel_final_1767789315138.jpg},POINT(127.427893917601 36.3692226389729)
강북요양병원,funeral_home,대구광역시 북구 칠곡중앙대로 504-6,35.9398952158552,128.550763719272,053-313-6006,1535,True,{https://xvmpvzldezpoxxsarizm.supabase.co/storage/v1/object/public/facility-images/defaults/charnel_final_1767789315138.jpg},POINT(128.550763719272 35.9398952158552)
메디팜재활요양병원장례식장입구,funeral_home,전라남도 순천시 인월동,34.8933403736002,127.481727609759,061-729-3300,1959,True,{https://xvmpvzldezpoxxsarizm.supabase.co/storage/v1/object/public/facility-images/defaults/charnel_final_1767789315138.jpg},POINT(127.481727609759 34.8933403736002)
고신대학교복음병원 장례식장,funeral_home,부산광역시 서구 감천로 262,35.0810780661749,129.014512799533,051-990-6444,1958,True,{https://xvmpvzldezpoxxsarizm.supabase.co/storage/v1/object/public/facility-images/defaults/charnel_final_1767789315138.jpg},POINT(129.014512799533 35.0810780661749)
청통추모관,charnel_house,경상북도 영천시 청통면 구정길 53-56,35.9785194953055,128.827466888581,054-331-1881,1943,True,{https://xvmpvzldezpoxxsarizm.supabase.co/storage/v1/object/public/facility-images/defaults/charnel_final_1767789315138.jpg},POINT(128.827466888581 35.9785194953055)
하나노인전문병원장례식장,funeral_home,충청북도 청주시 서원구 대림로 431,36.6099504842068,127.440574737363,043-270-8400,1902,True,{https://xvmpvzldezpoxxsarizm.supabase.co/storage/v1/object/public/facility-images/defaults/charnel_final_1767789315138.jpg},POINT(127.440574737363 36.6099504842068)
안면도장례식장,funeral_home,충청남도 태안군 안면읍 안면대로 2642,36.5350883148414,126.351222711051,041-672-0444,27379964,True,{https://15774129.go.kr/BCUser/facilitypic/7000002255/1566536639630.jpg},POINT(126.351222711051 36.5350883148414)
대우병원장례식장,funeral_home,경상남도 거제시 두모길 16 대우병원,34.8718515121972,128.722262567386,055-680-8444,10233175,True,{https://15774129.go.kr/BCUser/facilitypic/1421819769620_1000000723_0.JPG},POINT(128.722262567386 34.8718515121972)
서울특별시 서울의료원 장례식장,funeral_home,서울특별시 중랑구 신내로 156 서울의료원,37.6130913124974,127.099186989431,02-2276-7000,1891,True,{https://xvmpvzldezpoxxsarizm.supabase.co/storage/v1/object/public/facility-images/defaults/charnel_final_1767789315138.jpg},POINT(127.099186989431 37.6130913124974)
고성군공설봉안당,charnel_house,경상남도 고성군 상리면 장치로 220-163,34.9742687719193,128.239182999642,055-670-2629,1886,True,{https://xvmpvzldezpoxxsarizm.supabase.co/storage/v1/object/public/facility-images/defaults/charnel_final_1767789315138.jpg},POINT(128.239182999642 34.9742687719193)
단국대학교의과대학부속병원 장례식장,funeral_home,충남 천안시 동남구 망향로 201,36.8429512507387,127.173275258903,041-550-7474,1843,True,{https://xvmpvzldezpoxxsarizm.supabase.co/storage/v1/object/public/facility-images/defaults/charnel_final_1767789315138.jpg},POINT(127.173275258903 36.8429512507387)
창원시립상복공원 봉안당,charnel_house,경상남도 창원시 성산구 공단로474번길 160,35.1918570406257,128.663618654017,055-712-0901,1803,True,{https://xvmpvzldezpoxxsarizm.supabase.co/storage/v1/object/public/facility-images/defaults/charnel_final_1767789315138.jpg},POINT(128.663618654017 35.1918570406257)
봉생병원장례식장,funeral_home,부산광역시 동구 중앙대로 401 봉생병원,35.1308736761734,129.050556556591,051-638-4411,1674,True,{https://xvmpvzldezpoxxsarizm.supabase.co/storage/v1/object/public/facility-images/defaults/charnel_final_1767789315138.jpg},POINT(129.050556556591 35.1308736761734)
연천군보건의료원장례식장,funeral_home,경기도 연천군 전곡읍 은대성로 95,38.023533545582,127.060962442077,031-832-4474,1661,True,{https://xvmpvzldezpoxxsarizm.supabase.co/storage/v1/object/public/facility-images/defaults/charnel_final_1767789315138.jpg},POINT(127.060962442077 38.023533545582)
신천제일요양병원주차장,funeral_home,경기도 시흥시 호현로10번길 7-1,37.4414119308421,126.784367490754,031-318-9444,1645,True,{https://xvmpvzldezpoxxsarizm.supabase.co/storage/v1/object/public/facility-images/defaults/charnel_final_1767789315138.jpg},POINT(126.784367490754 37.4414119308421)
관인농협장례식장,funeral_home,경기도 포천시 관인면 창동로 1875,38.1581403088328,127.255824777812,031-533-9086,1637,True,{https://xvmpvzldezpoxxsarizm.supabase.co/storage/v1/object/public/facility-images/defaults/charnel_final_1767789315138.jpg},POINT(127.255824777812 38.1581403088328)
청구성심병원장례식장,funeral_home,서울특별시 은평구 통일로 873 청구성심병원,37.6208708620727,126.919599215198,02-352-4445,8110536,True,{https://15774129.go.kr/BCUser/facilitypic/1000000777/1554354745730.png},POINT(126.919599215198 37.6208708620727)
천안충무병원장례식장,funeral_home,충청남도 천안시 서북구 다가말3길 8 충무병원,36.7974200432454,127.1314916307,041-360-1059,1634,True,{https://xvmpvzldezpoxxsarizm.supabase.co/storage/v1/object/public/facility-images/defaults/charnel_final_1767789315138.jpg},POINT(127.1314916307 36.7974200432454)
메디팜재활요양병원장례식장,funeral_home,전라남도 순천시 양율길 306 미래메디팜,34.897481709329,127.478212406794,,1590,True,{https://xvmpvzldezpoxxsarizm.supabase.co/storage/v1/object/public/facility-images/defaults/charnel_final_1767789315138.jpg},POINT(127.478212406794 34.897481709329)
다보스병원 장례문화센터,funeral_home,경기도 용인시 처인구 백옥대로1082번길 18 B1,37.2315421543466,127.211398448325,031-8021-2114,1580,True,{https://xvmpvzldezpoxxsarizm.supabase.co/storage/v1/object/public/facility-images/defaults/charnel_final_1767789315138.jpg},POINT(127.211398448325 37.2315421543466)
녹동현대병원장례식장,funeral_home,전라남도 고흥군 도양읍 차경구렁목길 215,34.5462189487465,127.145728638375,061-843-4444,1575,True,{https://xvmpvzldezpoxxsarizm.supabase.co/storage/v1/object/public/facility-images/defaults/charnel_final_1767789315138.jpg},POINT(127.145728638375 34.5462189487465)
세웅병원장례식장,funeral_home,부산광역시 금정구 서동로 162 세웅병원장례식장,35.2144267199409,129.104073726048,051-527-7711,1548,True,{https://xvmpvzldezpoxxsarizm.supabase.co/storage/v1/object/public/facility-images/defaults/charnel_final_1767789315138.jpg},POINT(129.104073726048 35.2144267199409)
섬진장례식장,funeral_home,전라남도 곡성군 곡성읍 곡성로 935,35.2839726732713,127.301759091923,061-362-4441,1547,True,{https://xvmpvzldezpoxxsarizm.supabase.co/storage/v1/object/public/facility-images/defaults/charnel_final_1767789315138.jpg},POINT(127.301759091923 35.2839726732713)
충청남도 서산의료원 장례식장,funeral_home,충청남도 서산시 중앙로 149,36.7757497357692,126.464980696236,041-689-7444,1546,True,{https://xvmpvzldezpoxxsarizm.supabase.co/storage/v1/object/public/facility-images/defaults/charnel_final_1767789315138.jpg},POINT(126.464980696236 36.7757497357692)
광대리공설공원묘지,charnel_house,경기도 여주시 세종대왕면 광대리 198-18,37.2531748673269,127.584756781458,031-887-2264,1463,True,{https://xvmpvzldezpoxxsarizm.supabase.co/storage/v1/object/public/facility-images/defaults/charnel_final_1767789315138.jpg},POINT(127.584756781458 37.2531748673269)
(재)삼덕공원묘원,charnel_house,울산광역시 울주군 삼동면 삼덕로 426 (조일리  삼덕공원관리사무소),35.4721443095862,129.12691473093,1522-4144,1471,True,{https://xvmpvzldezpoxxsarizm.supabase.co/storage/v1/object/public/facility-images/defaults/charnel_final_1767789315138.jpg},POINT(129.12691473093 35.4721443095862)
천주교김천공원묘지,charnel_house,경상북도 김천시 개령면 황계길 280-41,36.1551262895759,128.155530102363,054-433-3880,1470,True,{https://xvmpvzldezpoxxsarizm.supabase.co/storage/v1/object/public/facility-images/defaults/charnel_final_1767789315138.jpg},POINT(128.155530102363 36.1551262895759)
신광교회 묘지,charnel_house,경기도 파주시 파주읍 백석리 산40-9,37.8083279503125,126.813220581368,031-952-5306,1469,True,{https://xvmpvzldezpoxxsarizm.supabase.co/storage/v1/object/public/facility-images/defaults/charnel_final_1767789315138.jpg},POINT(126.813220581368 37.8083279503125)
오산리최자실기념금식기도원공원묘지,charnel_house,경기도 파주시 조리읍,37.7447154207441,126.805164975937,031-947-0091,1468,True,{https://xvmpvzldezpoxxsarizm.supabase.co/storage/v1/object/public/facility-images/defaults/charnel_final_1767789315138.jpg},POINT(126.805164975937 37.7447154207441)
모슬포천주교공동묘지,charnel_house,제주특별자치도 서귀포시 대정읍,33.2266781347046,126.251842356115,064-794-2074,1448,True,{https://xvmpvzldezpoxxsarizm.supabase.co/storage/v1/object/public/facility-images/defaults/charnel_final_1767789315138.jpg},POINT(126.251842356115 33.2266781347046)
망우 역사 문화공원,charnel_house,서울특별시 중랑구 망우로91길 2,37.5989775278216,127.114382844197,02-496-8976,1377,True,{https://xvmpvzldezpoxxsarizm.supabase.co/storage/v1/object/public/facility-images/defaults/charnel_final_1767789315138.jpg},POINT(127.114382844197 37.5989775278216)
가산면제2공설묘지,charnel_house,경기도 포천시 가산면 가산리 산72,37.8298192467613,127.170889835561,031-538-4311,1357,True,{https://xvmpvzldezpoxxsarizm.supabase.co/storage/v1/object/public/facility-images/defaults/charnel_final_1767789315138.jpg},POINT(127.170889835561 37.8298192467613)
동수원병원장례식장,funeral_home,경기도 수원시 팔달구 권광로367번길 77 동수원한방병원,37.2786296945656,127.033292015875,031-213-1640,1616,True,{https://xvmpvzldezpoxxsarizm.supabase.co/storage/v1/object/public/facility-images/defaults/charnel_final_1767789315138.jpg},POINT(127.033292015875 37.2786296945656)
관인면제2공설묘지,charnel_house,경기도 포천시 관인면 냉정리 산149-1,38.1427363372212,127.267134605505,031-538-4661,1354,True,{https://xvmpvzldezpoxxsarizm.supabase.co/storage/v1/object/public/facility-images/defaults/charnel_final_1767789315138.jpg},POINT(127.267134605505 38.1427363372212)
구례병원장례식장,funeral_home,전라남도 구례군 구례읍 동편제길 4 의료시설,35.2159367441595,127.463759589955,061-783-4344,8703366,True,{https://15774129.go.kr/BCUser/facilitypic/1000000104/1562904272202.png},POINT(127.463759589955 35.2159367441595)
녹십자요양병원장례식장,funeral_home,경상남도 김해시 호계로 416,35.2275554810356,128.885468937222,055-338-3501,25722538,True,{https://15774129.go.kr/BCUser/facilitypic/7000001554/1476430418175.jpg},POINT(128.885468937222 35.2275554810356)
조천읍공설묘지,charnel_house,제주특별자치도 제주시 조천읍 선흘리 4116,33.4548474435566,126.695972279369,064-728-7831,1367,True,{https://xvmpvzldezpoxxsarizm.supabase.co/storage/v1/object/public/facility-images/defaults/charnel_final_1767789315138.jpg},POINT(126.695972279369 33.4548474435566)
창리공설묘지,charnel_house,인천광역시 강화군 선원면 창리 산84,37.7218839872061,126.48732199454,032-930-3702,1366,True,{https://xvmpvzldezpoxxsarizm.supabase.co/storage/v1/object/public/facility-images/defaults/charnel_final_1767789315138.jpg},POINT(126.48732199454 37.7218839872061)
청평면공설묘지,charnel_house,경기도 가평군 가평읍 상색리 산64-3,37.79352461964,127.463758808009,031-580-4120,1365,True,{https://xvmpvzldezpoxxsarizm.supabase.co/storage/v1/object/public/facility-images/defaults/charnel_final_1767789315138.jpg},POINT(127.463758808009 37.79352461964)
정읍시공설묘지,charnel_house,전북특별자치도 정읍시 입암면,35.5037572915116,126.793190936821,063-539-7153,1364,True,{https://xvmpvzldezpoxxsarizm.supabase.co/storage/v1/object/public/facility-images/defaults/charnel_final_1767789315138.jpg},POINT(126.793190936821 35.5037572915116)
하늘의문 마전점,charnel_house,인천광역시 서구 마전동 산164,37.5957500403375,126.663539857207,032-564-4131,1363,True,{https://xvmpvzldezpoxxsarizm.supabase.co/storage/v1/object/public/facility-images/defaults/charnel_final_1767789315138.jpg},POINT(126.663539857207 37.5957500403375)
서귀포시 표선면 공설묘지,charnel_house,제주특별자치도 서귀포시 표선면 서성일로189번길 313,33.428744439232,126.813518621867,064-760-4431,1362,True,{https://xvmpvzldezpoxxsarizm.supabase.co/storage/v1/object/public/facility-images/defaults/charnel_final_1767789315138.jpg},POINT(126.813518621867 33.428744439232)
창수면제2공설묘지,charnel_house,경기도 포천시 창수면 주원리 산128,37.9933273436279,127.179719699292,031-538-4411,1360,True,{https://xvmpvzldezpoxxsarizm.supabase.co/storage/v1/object/public/facility-images/defaults/charnel_final_1767789315138.jpg},POINT(127.179719699292 37.9933273436279)
창수면제3공설묘지,charnel_house,경기도 포천시 창수면 가양리 산208,37.9860991186704,127.20038911779,031-538-4411,1359,True,{https://xvmpvzldezpoxxsarizm.supabase.co/storage/v1/object/public/facility-images/defaults/charnel_final_1767789315138.jpg},POINT(127.20038911779 37.9860991186704)
교원예움 화성장례식장,funeral_home,경기도 화성시 마도면 쌍송북로 111,37.2017308144428,126.78794871026,031-355-8000,1042,True,{https://xvmpvzldezpoxxsarizm.supabase.co/storage/v1/object/public/facility-images/defaults/charnel_final_1767789315138.jpg},POINT(126.78794871026 37.2017308144428)
유토피아추모관,charnel_house,경기도 안성시 일죽면 화곡길 130,37.1191188,127.4605107,031-673-7904,1673724468,True,{/images/facilities/utopia/utopia_1.png},POINT(127.4605107 37.1191188)
제일장례식장,funeral_home,경기도 안산시 상록구 수인로 1222,37.3035125521679,126.875542434983,031-406-2000,1041,True,{https://xvmpvzldezpoxxsarizm.supabase.co/storage/v1/object/public/facility-images/defaults/charnel_final_1767789315138.jpg},POINT(126.875542434983 37.3035125521679)
보성군 춘추장례식장,funeral_home,전라남도 보성군 벌교읍 원동길 81,34.8388004627559,127.333311515259,061-858-4441,2257,True,{https://xvmpvzldezpoxxsarizm.supabase.co/storage/v1/object/public/facility-images/defaults/charnel_final_1767789315138.jpg},POINT(127.333311515259 34.8388004627559)
늘푸른 수목장,charnel_house,경상남도 거제시 사등면 지석로 216,34.8949437299224,128.532331977323,,2194,True,{https://xvmpvzldezpoxxsarizm.supabase.co/storage/v1/object/public/facility-images/defaults/charnel_final_1767789315138.jpg},POINT(128.532331977323 34.8949437299224)
거창사건추모공원위패봉안각,charnel_house,경상남도 거창군 신원면 신차로 2924 거창사건추모공원,35.5557456170525,127.924890338822,,2078,True,{https://xvmpvzldezpoxxsarizm.supabase.co/storage/v1/object/public/facility-images/defaults/charnel_final_1767789315138.jpg},POINT(127.924890338822 35.5557456170525)
강원대학교병원장례식장,funeral_home,강원특별자치도 춘천시 백령로 156,37.8750581655849,127.745457990962,033-254-5611,17572052,True,{https://15774129.go.kr/BCUser/facilitypic/1000000037/1555317175361.jpg},POINT(127.745457990962 37.8750581655849)
봉황장례식장,funeral_home,전라남도 고흥군 고흥읍 신호산장길 3,34.6063326631703,127.296450865116,061-833-4442,2018,True,{https://xvmpvzldezpoxxsarizm.supabase.co/storage/v1/object/public/facility-images/defaults/charnel_final_1767789315138.jpg},POINT(127.296450865116 34.6063326631703)
동두천중앙성모병원장례식장,funeral_home,경기도 동두천시 동광로 53 중앙성모병원,37.9089295,127.0539649,031-863-0550,217,True,{https://xvmpvzldezpoxxsarizm.supabase.co/storage/v1/object/public/facility-images/defaults/funeral_final_1767789315138.jpg},POINT(127.0539649 37.9089295)
청기와장례식장 계양점,funeral_home,인천광역시 계양구 아나지로 559 청기와장례식장 계양점,37.5265489968447,126.754734467215,032-546-4444,1979,True,{https://xvmpvzldezpoxxsarizm.supabase.co/storage/v1/object/public/facility-images/defaults/charnel_final_1767789315138.jpg},POINT(126.754734467215 37.5265489968447)
목포추모공원목포추모관휴,charnel_house,전라남도 목포시 고하대로 1140-41,34.8408021661022,126.404474262644,061-246-1001,1977,True,{https://xvmpvzldezpoxxsarizm.supabase.co/storage/v1/object/public/facility-images/defaults/charnel_final_1767789315138.jpg},POINT(126.404474262644 34.8408021661022)
금화추모관,charnel_house,전북특별자치도 순창군 순창읍 담순로 951-65,35.3707828267922,127.107519732639,063-652-6022,1975,True,{https://xvmpvzldezpoxxsarizm.supabase.co/storage/v1/object/public/facility-images/defaults/charnel_final_1767789315138.jpg},POINT(127.107519732639 35.3707828267922)
정토사 극락전추모관,charnel_house,경상남도 밀양시 삼랑진읍 삼랑진로 605,35.4139136096761,128.810592065628,055-352-9114,1974,True,{https://xvmpvzldezpoxxsarizm.supabase.co/storage/v1/object/public/facility-images/defaults/charnel_final_1767789315138.jpg},POINT(128.810592065628 35.4139136096761)
여수시공설묘지공원추모의집II,charnel_house,전라남도 여수시 소라면 의곡길 494 영락공원,34.8316760514194,127.580529285991,,1973,True,{https://xvmpvzldezpoxxsarizm.supabase.co/storage/v1/object/public/facility-images/defaults/charnel_final_1767789315138.jpg},POINT(127.580529285991 34.8316760514194)
구호전장례식장,funeral_home,광주광역시 북구 독립로 409,35.1668904554513,126.916674463378,062-960-4444,1972,True,{https://xvmpvzldezpoxxsarizm.supabase.co/storage/v1/object/public/facility-images/defaults/charnel_final_1767789315138.jpg},POINT(126.916674463378 35.1668904554513)
광주수완장례식장,funeral_home,광주광역시 광산구 수완로 6 C동 광주수완장례식장,35.1854845554574,126.829277958484,062-959-4444,1968,True,{https://xvmpvzldezpoxxsarizm.supabase.co/storage/v1/object/public/facility-images/defaults/charnel_final_1767789315138.jpg},POINT(126.829277958484 35.1854845554574)
국제성모병원 장례식장,funeral_home,인천 서구 심곡동 291,37.5424941271184,126.683611936726,1600-4484,1966,True,{https://xvmpvzldezpoxxsarizm.supabase.co/storage/v1/object/public/facility-images/defaults/charnel_final_1767789315138.jpg},POINT(126.683611936726 37.5424941271184)
학천사추모관,charnel_house,전라남도 화순군 화순읍 덕음로 940-27 (삼천리  학천사),35.0443598287071,126.988117455582,061-375-7631,1965,True,{https://xvmpvzldezpoxxsarizm.supabase.co/storage/v1/object/public/facility-images/defaults/charnel_final_1767789315138.jpg},POINT(126.988117455582 35.0443598287071)
천주교명일동성당장례식장,funeral_home,서울 강동구 양재대로156길 28,37.556107327057,127.146525893208,02-481-2216,1964,True,{https://xvmpvzldezpoxxsarizm.supabase.co/storage/v1/object/public/facility-images/defaults/charnel_final_1767789315138.jpg},POINT(127.146525893208 37.556107327057)
진주중앙요양병원장례식장,funeral_home,경상남도 진주시 촉석로 178 진주중앙병원,35.1943557096008,128.080830644489,055-745-8000,1963,True,{https://xvmpvzldezpoxxsarizm.supabase.co/storage/v1/object/public/facility-images/defaults/charnel_final_1767789315138.jpg},POINT(128.080830644489 35.1943557096008)
장안정사,charnel_house,경기도 고양시 일산동구 백마로502번길 64-13,37.6606150507144,126.802316837488,010-8240-4925,1962,True,{https://xvmpvzldezpoxxsarizm.supabase.co/storage/v1/object/public/facility-images/defaults/charnel_final_1767789315138.jpg},POINT(126.802316837488 37.6606150507144)
천룡사납골당,charnel_house,울산광역시 울주군 웅촌면 웅촌로 720-5,35.487121860559,129.224770963784,,1961,True,{https://xvmpvzldezpoxxsarizm.supabase.co/storage/v1/object/public/facility-images/defaults/charnel_final_1767789315138.jpg},POINT(129.224770963784 35.487121860559)
세월호일반인희생자추모관,charnel_house,인천광역시 부평구 부평동 산54-28,37.4772154836068,126.725000886626,032-456-2326,1980,True,{https://xvmpvzldezpoxxsarizm.supabase.co/storage/v1/object/public/facility-images/defaults/charnel_final_1767789315138.jpg},POINT(126.725000886626 37.4772154836068)
영북면 제1공설묘지,charnel_house,경기도 포천시 영북면 운천리 산25,38.0844273310971,127.281329264182,031-538-4611,1351,True,{https://xvmpvzldezpoxxsarizm.supabase.co/storage/v1/object/public/facility-images/defaults/charnel_final_1767789315138.jpg},POINT(127.281329264182 38.0844273310971)
군내면제1공설묘지,charnel_house,경기도 포천시 군내면 구읍리 산2-1,37.8915627650146,127.208729178744,031-538-4211,1350,True,{https://xvmpvzldezpoxxsarizm.supabase.co/storage/v1/object/public/facility-images/defaults/charnel_final_1767789315138.jpg},POINT(127.208729178744 37.8915627650146)
군내면제2공설묘지,charnel_house,경기도 포천시 군내면 구읍리 131-14,37.8885503114935,127.22352945561,031-538-4211,1349,True,{https://xvmpvzldezpoxxsarizm.supabase.co/storage/v1/object/public/facility-images/defaults/charnel_final_1767789315138.jpg},POINT(127.22352945561 37.8885503114935)
덕도리공설묘지,charnel_house,경기도 양주시 광적면 덕도리 산27,37.8534558119222,126.972926117207,031-8082-7610,1308,True,{https://xvmpvzldezpoxxsarizm.supabase.co/storage/v1/object/public/facility-images/defaults/charnel_final_1767789315138.jpg},POINT(126.972926117207 37.8534558119222)
영양병원장례식장,funeral_home,경상북도 영양군 영양읍 동서대로 75 영양병원,36.6625217448276,129.117619530911,054-682-0727,25083573,True,{https://15774129.go.kr/BCUser/facilitypic/1000000569/1561104678148.png},POINT(129.117619530911 36.6625217448276)
구좌읍공설묘지,charnel_house,제주특별자치도 제주시 구좌읍 송당리 54-1,33.4551432716975,126.797884207215,064-728-7723,1403,True,{https://xvmpvzldezpoxxsarizm.supabase.co/storage/v1/object/public/facility-images/defaults/charnel_final_1767789315138.jpg},POINT(126.797884207215 33.4551432716975)
석우리공설묘지,charnel_house,경기도 양주시 광적면 광적로156번길 27-4,37.8332519343724,126.978647968331,031-8082-7610,1306,True,{https://xvmpvzldezpoxxsarizm.supabase.co/storage/v1/object/public/facility-images/defaults/charnel_final_1767789315138.jpg},POINT(126.978647968331 37.8332519343724)
고제공설공원묘지,charnel_house,경상남도 거창군 고제면,35.8148411245577,127.871425956367,055-940-3892,1303,True,{https://xvmpvzldezpoxxsarizm.supabase.co/storage/v1/object/public/facility-images/defaults/charnel_final_1767789315138.jpg},POINT(127.871425956367 35.8148411245577)
유양동공설묘지,charnel_house,경기도 양주시 유양동 산99,37.7865064324029,127.013259582927,031-8082-7714,1302,True,{https://xvmpvzldezpoxxsarizm.supabase.co/storage/v1/object/public/facility-images/defaults/charnel_final_1767789315138.jpg},POINT(127.013259582927 37.7865064324029)
어둔동공설묘지,charnel_house,경기도 양주시 어둔동 산102,37.7830235380442,127.008939658349,031-8082-7714,1301,True,{https://xvmpvzldezpoxxsarizm.supabase.co/storage/v1/object/public/facility-images/defaults/charnel_final_1767789315138.jpg},POINT(127.008939658349 37.7830235380442)
광양백운장례식장,funeral_home,전라남도 광양시 광양읍 제철로26번길 19,34.9617269294912,127.602585718727,061-761-0004,1191748713,True,{https://15774129.go.kr/BCUser/facilitypic/1656666394193.jpg},POINT(127.602585718727 34.9617269294912)
상주시민장례식장,funeral_home,경상북도 상주시 경상대로 2693,36.3881608892075,128.149868401757,054-536-8800,601885014,True,{https://15774129.go.kr/BCUser/facilitypic/1573872188910_7000002271_0.jpg},POINT(128.149868401757 36.3881608892075)
갑향군립묘원봉안,charnel_house,전라남도 담양군 대전면 추성로 468,35.2841641499775,126.904832357127,061-380-3383,1299,True,{https://xvmpvzldezpoxxsarizm.supabase.co/storage/v1/object/public/facility-images/defaults/charnel_final_1767789315138.jpg},POINT(126.904832357127 35.2841641499775)
상상추모공원,charnel_house,전라남도 함평군 함평읍 함장로 933-43,35.0542936608433,126.503982983512,061-322-6666,655,True,{https://places.googleapis.com/v1/places/ChIJj4-Z3RjOczURWFoGwRS_UlA/photos/AZLasHrW6Ex68TwKBA_Y2T8mYV2-EISGOwmDFoTpbAdKk1Wunz7i0Y6T6O-AX_Xyagm0ZNJXywgsKSuOovDRYIDcVcbBQzAyZR-JFICzFuPxMR0iAUYL-Yh4ANrtCNaOXvE2PdIVifMB_VginUccr7F9AHxVbunvClqRCWiez4R9gMg3xR50PGe_wT0tvRf8vJzgsgNnoi26K8V_46sdcjuvwTmHONN7G3znOHveaSqVXGX0mst_cU6UdR6-Ge761LfTWbp5pfkIGT47OQVaofqaFU2WkJPYiE48jOgf4FI_eL0zHd95Z9kFdLGItkwuTUZ_U4Bs36AhwcfXgDELS5nxHFkC2fgdLDnB1dTGod46kz_XSX5SgRSL9xZt5RT9qXKyi7-WvQVjII5JlDX8UkQqAwrPX8YcNUOyjwAnbWSJlGU/media?maxHeightPx=800&maxWidthPx=800&key=AIzaSyBS18mDdul10bgKMyu15WPpevY1Y_jZBTg},POINT(126.503982983512 35.0542936608433)
순천시립추모공원봉안당,charnel_house,전라남도 순천시 양율길 132,34.909495185906,127.480345089288,061-749-6168,766,True,{https://places.googleapis.com/v1/places/ChIJt34RFI8IbjURLMOB4rxn90c/photos/AZLasHoEzu5DrnPrNR2RL8YB8po8McMSEVGLU-ehdSC9Unx1663IkccnxgBGPHQaezyVx_a8SiejLTk9vxRCaLWfy2GPmntZF8x7hsRq_nnIEx4-0hJatrqxiaaxlMd999B-gWVJ4WP5kWeoUEYH7oejMOoVGH0Uv5fShpcyWIppmyX-n_Hp5RooZaaRsOiS7GvZCYU2RSPnhgIx-OTb78mTGCfgExtGZEAyk71jk15CpaWALgWHhCq_kjv3F6CNz06i6wupiMvqn1OOH8Oygh5lhHq5wWR1v-5CrkolPB899L-1kioJNLM1OVsWNRS3ZiURf2eIuyoQp1Lyy4NqN7b_CRkcfIKs0N5zl5iP3JgTgvfjkkbJzroe3cbExoBg8pxGqdu8ZVd4uUij9AS6BuhiUWa47j7k0zb_tbPfzjza2AI/media?maxHeightPx=800&maxWidthPx=800&key=AIzaSyBS18mDdul10bgKMyu15WPpevY1Y_jZBTg},POINT(127.480345089288 34.909495185906)
창녕추모공원,charnel_house,경상남도 창녕군 창녕읍 탐하로 203 창녕추모공원,35.533685,128.4913228,055-533-2719,773,True,{https://places.googleapis.com/v1/places/ChIJhzXE8vNPbzURLU0pOvHmuY0/photos/AZLasHo291CYeGAUOKpQrKQf_ZcwHiEh1LV2CLEpxREzws3fObYbvxHfCTgCBAcsbd-JAhEio6CzqZvVczxq0Xmj_RiAqKM6LG3hQpxjv7UV7z1YnGzFyfBwCpGK_4pv2eMb3H4mRBqOdnThVYNBAmsQ9EdcTX-FkBtFXf-2fJy0BlypcMigDmyrC0doz2NO2wfO3XVEXYhgaPD0Funa3uWbZD0Y9nk5ULnePS0WM0BBhtAsXJOA4_v0hRhX7wF5_f97AOe0SIxZ0UoyMpaLf7TZoHw1cI4G4CpEQBEWbNJBNDmiWq8iv2IJsPWYaFXYepb5eeTV0MFsEKNupc1AGwkEJi_xojcJkpBJROUrqW53iyKC6QoLh5ZvP8o7OUU85yp2GQ48fh03xDkUgd7EJU4wl9Xz8hw8srjJBh0iLH-GMHha3cs/media?maxHeightPx=800&maxWidthPx=800&key=AIzaSyBS18mDdul10bgKMyu15WPpevY1Y_jZBTg},POINT(128.4913228 35.533685)
교산리공설묘지 별립산,charnel_house,인천광역시 강화군 양사면 교산리 산355-1,37.781517639325,126.38492949886,032-934-2183,1393,True,{https://xvmpvzldezpoxxsarizm.supabase.co/storage/v1/object/public/facility-images/defaults/charnel_final_1767789315138.jpg},POINT(126.38492949886 37.781517639325)
포내공설묘지,charnel_house,경기도 김포시 월곶면 포내리 산36,37.7141440357876,126.53430119712,031-980-5347,1309,True,{https://xvmpvzldezpoxxsarizm.supabase.co/storage/v1/object/public/facility-images/defaults/charnel_final_1767789315138.jpg},POINT(126.53430119712 37.7141440357876)
광사동공설묘지,charnel_house,경기도 양주시 광사동 산137-1,37.7734039664708,127.073380142492,031-8082-7750,1297,True,{https://xvmpvzldezpoxxsarizm.supabase.co/storage/v1/object/public/facility-images/defaults/charnel_final_1767789315138.jpg},POINT(127.073380142492 37.7734039664708)
회정동공설묘지,charnel_house,경기도 양주시 회정동 산13,37.8488232011245,127.053042146009,031-8082-7750,1293,True,{https://xvmpvzldezpoxxsarizm.supabase.co/storage/v1/object/public/facility-images/defaults/charnel_final_1767789315138.jpg},POINT(127.053042146009 37.8488232011245)
강화파라다이스 강화지점,charnel_house,인천광역시 강화군 송해면 강화대로 879-21,37.7668589,126.4476556,032-934-4781,709,True,{https://places.googleapis.com/v1/places/ChIJWyBJAZh6fDUR7qnsM2JsdWo/photos/AZLasHqpWAQzZyC1xOvZYjYXSoLO9zCFOrnBRkkn-20nD8yDclUHuZZZKkjvgkDQfqpcj_JT8HG1Ha1oiHAJSXHeE01XFoQFrYmBBxEVQ9iFOSiLR8PEWaB6KhpzPEEOyCxr2yR7ZwbQ5xiqOGsfAbxVdAUovaLoN1Nw4ap1HBHOh6uRR-yag-rpv7JLDtD3EV407YPyZh7rKCCTuWBAE1BtrL_7_ZyMJ9DVwWmsHGmcM23jLDqkfMAJxi69B4UEs4o6IuIxaWcFup310dEDqYoNWr0mnTzCG8NdMOt7NK8In26fl23Lbz1O_M7srMK8Hoi8mOGfi1-abYhKVGEcx5PZk_hq9qc_LfbqoSN_y6MlUeZNMUsguuaJppi48R0jDYXh4mUaPx4nZxYWwbxdFztcr_cqC8mnrbbJrVpdMJwrJ3CZm8Q/media?maxHeightPx=800&maxWidthPx=800&key=AIzaSyBS18mDdul10bgKMyu15WPpevY1Y_jZBTg},POINT(126.4476556 37.7668589)
수암사영혼의쉼터,charnel_house,경상남도 의령군 의령읍 수암로 267,35.3070073584721,128.229350129789,055-572-0022,682,True,{https://15774129.go.kr/BCUser/facilitypic/7000001776/1707812121050.PNG},POINT(128.229350129789 35.3070073584721)
천주교종로성당나자렛묘원,charnel_house,경기도 파주시 광탄면 혜음로 1276-25,37.7950577878037,126.848325014135,031-947-0173,1292,True,{https://xvmpvzldezpoxxsarizm.supabase.co/storage/v1/object/public/facility-images/defaults/charnel_final_1767789315138.jpg},POINT(126.848325014135 37.7950577878037)
우고리공설묘지,charnel_house,경기도 양주시 광적면 우고리 산1,37.83197360869,126.966133638783,031-8082-7610,1291,True,{https://xvmpvzldezpoxxsarizm.supabase.co/storage/v1/object/public/facility-images/defaults/charnel_final_1767789315138.jpg},POINT(126.966133638783 37.83197360869)
언양요양병원장례식장입구,funeral_home,울산광역시 울주군 삼남읍 교동리,35.5604438481684,129.125540000034,052-264-9787,11319507,True,{https://15774129.go.kr/BCUser/facilitypic/1000000527/1555907705891.jpg},POINT(129.125540000034 35.5604438481684)
